{"version": 0.6, "generator": "Overpass API 0.7.62.4 2390de5a", "osm3s": {"timestamp_osm_base": "2025-01-13T19:41:41Z", "copyright": "The data included in this document is from www.openstreetmap.org. The data is made available under ODbL."}, "elements": [{"type": "node", "id": 16200068, "lat": 60.1876859, "lon": 24.8346234}, {"type": "node", "id": 25030562, "lat": 60.1895384, "lon": 24.8296687}, {"type": "node", "id": 25030564, "lat": 60.1897993, "lon": 24.829922}, {"type": "node", "id": 25030571, "lat": 60.1903759, "lon": 24.8310883, "tags": {"traffic:hourly:15:Tu:fall:backward": "48/10:00", "traffic:hourly:15:Tu:fall:forward": "72/10:00"}}, {"type": "node", "id": 25030574, "lat": 60.1904092, "lon": 24.83137}, {"type": "node", "id": 25030577, "lat": 60.1901016, "lon": 24.8326619}, {"type": "node", "id": 25030594, "lat": 60.1885582, "lon": 24.8346173}, {"type": "node", "id": 25030601, "lat": 60.187909, "lon": 24.834849}, {"type": "node", "id": 25030629, "lat": 60.1871743, "lon": 24.83357, "tags": {"crossing": "uncontrolled", "crossing:island": "no", "highway": "crossing"}}, {"type": "node", "id": 25030666, "lat": 60.1837133, "lon": 24.8317098}, {"type": "node", "id": 25030697, "lat": 60.1884201, "lon": 24.8344638}, {"type": "node", "id": 25030703, "lat": 60.1880297, "lon": 24.834549, "tags": {"created_by": "JOSM"}}, {"type": "node", "id": 25032000, "lat": 60.1847191, "lon": 24.8360804, "tags": {"crossing": "uncontrolled", "highway": "crossing", "tactile_paving": "no"}}, {"type": "node", "id": 25032012, "lat": 60.1847318, "lon": 24.8333247, "tags": {"created_by": "JOSM"}}, {"type": "node", "id": 25049536, "lat": 60.1902047, "lon": 24.8305744}, {"type": "node", "id": 25066444, "lat": 60.1890455, "lon": 24.8293941}, {"type": "node", "id": 25090279, "lat": 60.182141, "lon": 24.8251932}, {"type": "node", "id": 25090281, "lat": 60.1814474, "lon": 24.8238171}, {"type": "node", "id": 25090289, "lat": 60.180974, "lon": 24.8244442}, {"type": "node", "id": 25150498, "lat": 60.1834452, "lon": 24.8317595}, {"type": "node", "id": 25151380, "lat": 60.1873165, "lon": 24.8133885}, {"type": "node", "id": 25151447, "lat": 60.1893641, "lon": 24.8296152}, {"type": "node", "id": 25199787, "lat": 60.181299, "lon": 24.8261168}, {"type": "node", "id": 25199890, "lat": 60.1836171, "lon": 24.8356376}, {"type": "node", "id": 25469575, "lat": 60.1685999, "lon": 24.9404491}, {"type": "node", "id": 25469831, "lat": 60.1692236, "lon": 24.9512997}, {"type": "node", "id": 25469834, "lat": 60.1706311, "lon": 24.9519405}, {"type": "node", "id": 25469835, "lat": 60.1706417, "lon": 24.9523528}, {"type": "node", "id": 25469837, "lat": 60.1704955, "lon": 24.952684}, {"type": "node", "id": 25469838, "lat": 60.1702881, "lon": 24.9527056}, {"type": "node", "id": 25469840, "lat": 60.1701249, "lon": 24.9524066}, {"type": "node", "id": 25469841, "lat": 60.1701143, "lon": 24.9519943}, {"type": "node", "id": 25469843, "lat": 60.1702614, "lon": 24.9516696}, {"type": "node", "id": 25469844, "lat": 60.1704688, "lon": 24.951648}, {"type": "node", "id": 25504242, "lat": 60.1604898, "lon": 24.9334322}, {"type": "node", "id": 25506224, "lat": 60.1870524, "lon": 24.9534143, "tags": {"button_operated": "no", "crossing": "traffic_signals", "highway": "crossing", "traffic_signals:sound": "yes", "traffic_signals:vibration": "no"}}, {"type": "node", "id": 25506225, "lat": 60.1869429, "lon": 24.9516978, "tags": {"button_operated": "yes", "crossing": "traffic_signals", "highway": "crossing", "traffic_signals:sound": "no", "traffic_signals:vibration": "no"}}, {"type": "node", "id": 25506229, "lat": 60.1866258, "lon": 24.9507843}, {"type": "node", "id": 25506231, "lat": 60.1865067, "lon": 24.9481255, "tags": {"check_date:crossing": "2020-12-19", "crossing": "uncontrolled", "highway": "crossing", "railway": "tram_crossing"}}, {"type": "node", "id": 25506233, "lat": 60.1863602, "lon": 24.9437068}, {"type": "node", "id": 25506234, "lat": 60.1860573, "lon": 24.941324, "tags": {"bench": "yes", "bin": "yes", "departures_board": "realtime", "lit": "yes", "name": "Linnanm\u00e4ki (etel\u00e4)", "name:fi": "Linnanm\u00e4ki (etel\u00e4)", "name:sv": "Borgbacken", "public_transport": "platform", "railway": "tram_stop", "ref": "H0246", "shelter": "yes", "website": "https://reittiopas.hsl.fi/pysakit/HSL%3A1122447", "wheelchair": "yes", "zone:HSL": "A"}}, {"type": "node", "id": 25506237, "lat": 60.1847653, "lon": 24.9323058}, {"type": "node", "id": 25506238, "lat": 60.1846018, "lon": 24.9320354}, {"type": "node", "id": 25506240, "lat": 60.1832597, "lon": 24.931364}, {"type": "node", "id": 25506242, "lat": 60.1829018, "lon": 24.9307738}, {"type": "node", "id": 25506243, "lat": 60.1824568, "lon": 24.9293836, "tags": {"button_operated": "yes", "check_date:crossing": "2021-06-27", "crossing": "traffic_signals", "crossing:island": "yes", "highway": "crossing", "segregated": "no", "traffic_signals:sound": "no", "traffic_signals:vibration": "no"}}, {"type": "node", "id": 25530501, "lat": 60.1856178, "lon": 24.8189333}, {"type": "node", "id": 26630661, "lat": 60.1591892, "lon": 24.9546202}, {"type": "node", "id": 26631973, "lat": 60.1671452, "lon": 24.9431778}, {"type": "node", "id": 26631975, "lat": 60.1675383, "lon": 24.9431409}, {"type": "node", "id": 26631976, "lat": 60.1674468, "lon": 24.9428841}, {"type": "node", "id": 26631978, "lat": 60.1673489, "lon": 24.9428504, "tags": {"entrance": "main"}}, {"type": "node", "id": 26631981, "lat": 60.1672473, "lon": 24.9429831}, {"type": "node", "id": 26632035, "lat": 60.1671587, "lon": 24.9438941}, {"type": "node", "id": 26632036, "lat": 60.1671695, "lon": 24.9438929}, {"type": "node", "id": 26632037, "lat": 60.167178, "lon": 24.9442547}, {"type": "node", "id": 26632038, "lat": 60.1676083, "lon": 24.9442123}, {"type": "node", "id": 26632039, "lat": 60.1675989, "lon": 24.9438441}, {"type": "node", "id": 26632040, "lat": 60.1672227, "lon": 24.9431705}, {"type": "node", "id": 34758097, "lat": 60.2042295, "lon": 24.9595988}, {"type": "node", "id": 34758098, "lat": 60.2041333, "lon": 24.9595515}, {"type": "node", "id": 34758100, "lat": 60.2028933, "lon": 24.9604772}, {"type": "node", "id": 34758101, "lat": 60.2025157, "lon": 24.9616054}, {"type": "node", "id": 36772675, "lat": 60.1709141, "lon": 24.9368615}, {"type": "node", "id": 54045280, "lat": 60.2289573, "lon": 25.0157879}, {"type": "node", "id": 54771242, "lat": 60.1815422, "lon": 24.8264578}, {"type": "node", "id": 55131632, "lat": 60.1842542, "lon": 24.8246995}, {"type": "node", "id": 57661989, "lat": 60.162103, "lon": 24.9200425}, {"type": "node", "id": 59622323, "lat": 60.1721106, "lon": 24.9449953, "tags": {"addr:city": "Helsinki", "addr:housenumber": "18", "addr:postcode": "00100", "addr:street": "Mikonkatu", "amenity": "restaurant", "diet:halal": "no", "diet:kosher": "no", "diet:vegan": "yes", "diet:vegetarian": "yes", "name": "Maya Bar & Grill", "opening_hours": "Mo-Su 13:00-22:00", "payment:credit_cards": "yes", "payment:debit_cards": "yes", "website": "https://www.maya.fi/", "wheelchair": "limited"}}, {"type": "node", "id": 59967451, "lat": 60.1740168, "lon": 24.9196696, "tags": {"amenity": "post_box", "collection_times": "Mo-Fr 14:00"}}, {"type": "node", "id": 59967452, "lat": 60.1752519, "lon": 24.9197676, "tags": {"amenity": "post_box"}}, {"type": "node", "id": 59967815, "lat": 60.1794724, "lon": 24.9230866, "tags": {"addr:city": "Helsinki", "addr:housenumber": "46", "addr:postcode": "00260", "addr:street": "Runeberginkatu", "amenity": "pharmacy", "check_date:opening_hours": "2023-04-12", "dispensing": "yes", "healthcare": "pharmacy", "name": "Carelia apteekki", "name:fi": "Carelia apteekki", "opening_hours": "Mo-Fr 08:30-19:00; Sa 09:30-15:30", "phone": "+358925385300", "website": "https://carelia-apteekki.fi/", "wheelchair": "yes"}}, {"type": "node", "id": 60041445, "lat": 60.1725117, "lon": 24.9444776, "tags": {"amenity": "theatre", "name": "Omapohja"}}, {"type": "node", "id": 60055850, "lat": 60.1750158, "lon": 24.9345099}, {"type": "node", "id": 60062271, "lat": 60.1720705, "lon": 24.9312434, "tags": {"addr:city": "Helsinki", "addr:housenumber": "3", "addr:street": "Nervanderinkatu", "amenity": "arts_centre", "check_date": "2024-08-08", "name": "Helsingin taidehalli", "name:en": "Kunsthalle Helsinki", "name:fi": "Helsingin taidehalli", "name:sv": "Helsingfors Konsthall", "opening_hours": "Mo off; Tu,Th-Fr 11:00-18:00; We 11:00-20:00; Sa-Su 11:00-17:00", "phone": "+358 40 450 7211", "website": "https://www.taidehalli.fi/", "wikidata": "Q1792414", "wikimedia_commons": "Category:Kunsthalle Helsinki", "wikipedia": "fi:Taidehalli (Helsinki)"}}, {"type": "node", "id": 60062502, "lat": 60.167247, "lon": 24.9242236, "tags": {"addr:city": "Helsinki", "addr:country": "FI", "addr:housenumber": "12", "addr:postcode": "00180", "addr:street": "Lapinlahdenkatu", "amenity": "restaurant", "cuisine": "japanese", "diet:halal": "no", "diet:kosher": "no", "name": "Kabuki", "payment:credit_cards": "yes", "payment:debit_cards": "yes", "phone": "+358 9 694 9446", "website": "http://www.kabuki.fi/", "wheelchair": "no"}}, {"type": "node", "id": 60067915, "lat": 60.1609681, "lon": 24.9377224, "tags": {"addr:city": "Helsinki", "addr:country": "FI", "addr:housenumber": "12", "addr:postcode": "00150", "addr:street": "Punavuorenkatu", "amenity": "pub", "email": "punavuoren.ahven@delifox.fi", "indoor_seating": "yes", "name": "Punavuoren Ahven", "opening_hours": "Mo-Th 14:00-02:00; Fr 14:00-03:00; Sa 12:00-03:00; Su 12:00-24:00", "outdoor_seating": "yes", "phone": "+358947803350"}}, {"type": "node", "id": 60067916, "lat": 60.1605736, "lon": 24.9296765, "tags": {"addr:city": "Helsinki", "addr:country": "FI", "addr:housenumber": "6", "addr:postcode": "00120", "addr:street": "Hietalahdenranta", "amenity": "fuel", "brand": "Neste", "brand:wikidata": "Q616376", "brand:wikipedia": "en:Neste", "compressed_air": "yes", "name": "Neste K Hietalahti", "operator": "Neste", "website": "https://neste.fi/asema/neste-k-helsinki-hietalahti", "wheelchair": "yes"}}, {"type": "node", "id": 60068034, "lat": 60.1715498, "lon": 24.9405697, "tags": {"addr:city": "Helsinki", "addr:country": "FI", "addr:postcode": "00100", "addr:street": "Kauppakuja", "amenity": "pub", "description": "Olut- ja viinihuone", "level": "0", "name": "Ooster", "payment:credit_cards": "yes", "payment:debit_cards": "yes", "wheelchair": "yes"}}, {"type": "node", "id": 60068035, "lat": 60.169967, "lon": 24.937518, "tags": {"addr:city": "Helsinki", "addr:country": "FI", "amenity": "cafe", "check_date": "2024-09-16", "diet:halal": "no", "diet:kosher": "no", "indoor_seating": "yes", "name": "Cafe Java", "opening_hours": "Mo-Tu 09:00-21:00; We-Th 09:00-22:00; Fr 09:00-23:00; Sa 10:00-23:30; Su 10:00-19:00", "outdoor_seating": "yes", "payment:credit_cards": "yes", "payment:debit_cards": "yes", "url": "http://www.cafejava.fi/", "wheelchair": "limited"}}, {"type": "node", "id": 60068267, "lat": 60.1740595, "lon": 24.9315706, "tags": {"addr:city": "Helsinki", "addr:country": "FI", "addr:housenumber": "10", "addr:postcode": "00100", "addr:street": "Museokatu", "amenity": "pub", "indoor_seating": "yes", "internet_access": "wlan", "loc_name": "Urho", "name": "St Urho's Pub", "opening_hours": "Su-Th 15:00-00:00; Fr-Sa 15:00-01:00", "operator": "Oy Botta Ab", "outdoor_seating": "yes", "phone": "09-5807 7222", "postal_code": "00100", "source": "survey", "url": "https://www.urhospub.fi", "wikidata": "Q11894347", "wikipedia": "en:St. Urho's Pub"}}, {"type": "node", "id": 60068271, "lat": 60.1738472, "lon": 24.9321979, "tags": {"addr:city": "Helsinki", "addr:country": "FI", "addr:housenumber": "8", "addr:street": "Museokatu", "amenity": "pub", "indoor_seating": "yes", "name": "Storyville", "opening_hours": "Jun-Aug Mo,Tu 14:00-24:00, Jun-Aug We-Sa 14:00-02:00, Jun-Aug Su 14:00-20:00", "outdoor_seating": "yes", "start_date": "1993", "url": "http://www.storyville.fi/"}}, {"type": "node", "id": 60071740, "lat": 60.1792589, "lon": 24.9237353}, {"type": "node", "id": 60071741, "lat": 60.1788526, "lon": 24.9236331}, {"type": "node", "id": 60072165, "lat": 60.1759175, "lon": 24.927272, "tags": {"addr:housenumber": "6", "addr:street": "V\u00e4nrikki Stoolin katu", "amenity": "place_of_worship", "denomination": "methodist", "name": "Kristuskyrkan", "name:sv": "Kristuskyrkan", "religion": "christian", "website": "https://helsingfors.metodistkyrkan.fi/", "wikidata": "Q10549299", "wikimedia_commons": "Category:Kristuskyrkan", "wikipedia": "sv:Kristuskyrkan"}}, {"type": "node", "id": 60072323, "lat": 60.178912, "lon": 24.9472739, "tags": {"addr:city": "Helsinki", "addr:country": "FI", "addr:housenumber": "6", "addr:postcode": "00530", "addr:street": "S\u00e4\u00e4st\u00f6pankinranta", "amenity": "pub", "contact:instagram": "https://www.instagram.com/juttutupa/", "facebook": "https://www.facebook.com/juttutupa/", "name": "Juttutupa", "opening_hours": "Mo 10:00-24:00; Tu-Th 10:00-01:00; Fr-Sa 10:00-03:00; Su 12:00-23:00", "outdoor_seating": "yes", "payment:credit_cards": "yes", "payment:debit_cards": "yes", "phone": "+358 20 7424 240", "start_date": "1908", "website": "https://www.juttutupa.fi/", "wheelchair": "limited", "wheelchair:description": "There is a wheelchair accessible entrance to the pub."}}, {"type": "node", "id": 60072511, "lat": 60.1599267, "lon": 24.9464208, "tags": {"addr:city": "Helsinki", "addr:country": "FI", "addr:housenumber": "2", "addr:postcode": "00140", "addr:street": "Korkeavuorenkatu", "amenity": "cafe", "diet:halal": "no", "diet:kosher": "no", "name": "Caf\u00e9 Succ\u00e8s", "opening_hours": "Mo-Fr 08:00-18:00; Sa 10:00-17:00; Su 12:00-17:00; Jul 01-31 Sa-Su off; PH off", "payment:credit_cards": "yes", "payment:debit_cards": "yes", "website": "https://www.facebook.com/cafesucces"}}, {"type": "node", "id": 60133792, "lat": 60.1710523, "lon": 24.9285748, "tags": {"addr:city": "Helsinki", "addr:country": "FI", "addr:housenumber": "14", "addr:street": "Arkadiankatu", "amenity": "restaurant", "check_date": "2024-05-16", "diet:halal": "no", "diet:kosher": "no", "name": "Atelj\u00e9 Finne"}}, {"type": "node", "id": 60170828, "lat": 60.174356, "lon": 24.9192024, "tags": {"addr:city": "Helsinki", "addr:country": "FI", "addr:housenumber": "25", "addr:postcode": "00100", "addr:street": "Mechelininkatu", "amenity": "pub", "name": "Laiska Karhu", "opening_hours": "Mo-Su 16:00-02:00"}}, {"type": "node", "id": 60241236, "lat": 60.167984, "lon": 24.9594366}, {"type": "node", "id": 60241238, "lat": 60.1680223, "lon": 24.9604933}, {"type": "node", "id": 60241685, "lat": 60.1615936, "lon": 24.944702}, {"type": "node", "id": 60241689, "lat": 60.16181, "lon": 24.9445578}, {"type": "node", "id": 60304008, "lat": 60.1794733, "lon": 24.9214087}, {"type": "node", "id": 60537673, "lat": 60.1861979, "lon": 24.942422}, {"type": "node", "id": 60543532, "lat": 60.1725874, "lon": 24.9201499, "tags": {"addr:city": "Helsinki", "addr:country": "FI", "addr:housenumber": "17", "addr:postcode": "00100", "addr:street": "Mechelininkatu", "amenity": "restaurant", "cuisine": "thai", "diet:halal": "no", "diet:kosher": "no", "name": "Aa Han Thai", "opening_hours": "Tu-Fr 11:00-22:00; Mo 11:00-20:00; Sa 12:00-22:00; Su 12:00-21:00", "wheelchair": "no"}}, {"type": "node", "id": 60543533, "lat": 60.1719895, "lon": 24.9204769, "tags": {"addr:city": "Helsinki", "addr:country": "FI", "addr:housenumber": "13", "addr:postcode": "00100", "addr:street": "Mechelininkatu", "amenity": "bar", "brewery": "yes", "email": "info@favela.fi", "name": "Bar Favela", "opening_hours": "Tu-Th 16:00-00:00; Fr 16:00-02:00; Sa 16:00-03:00", "outdoor_seating": "yes", "payment:cash": "yes", "payment:credit_cards": "yes", "payment:debit_cards": "yes", "phone": "+358 10 292 8090", "website": "https://favela.fi/", "wheelchair": "yes"}}, {"type": "node", "id": 62965963, "lat": 60.1695291, "lon": 24.9329201, "tags": {"amenity": "restaurant", "cuisine": "fusion", "email": "info@fusion.fi", "facebook": "https://www.facebook.com/profile.php?id=100086180344535", "indoor_seating": "yes", "level": "1", "name": "Restaurant & Bar Fusion", "opening_hours": "Mo-Th 11-22; Fr-Sa 11-02; Su 12-20", "outdoor_seating": "yes", "payment:credit_cards": "yes", "payment:debit_cards": "yes", "phone": "+358 50 381 2378", "short_name": "Fusion;Restaurant Fusion", "start_date": "2022-10-05", "toilets:wheelchair": "yes", "website": "https://fusion.fi", "wheelchair": "yes"}}, {"type": "node", "id": 62967659, "lat": 60.1713362, "lon": 24.9376471, "tags": {"addr:city": "Helsinki", "addr:housenumber": "1 B", "addr:postcode": "00100", "addr:street": "Mannerheiminaukio", "amenity": "restaurant", "contact:phone": "020 729 67 12", "diet:halal": "no", "diet:kosher": "no", "email": "paaposti@foodandco.fi", "name": "Ravintola P\u00e4\u00e4posti", "opening_hours:covid19": "off", "payment:credit_cards": "yes", "payment:debit_cards": "yes", "website": "https://foodandco.fi/ravintolat/Ravintolat-kaupungeittain/helsinki/paaposti/", "wheelchair": "yes"}}, {"type": "node", "id": 68734026, "lat": 60.1606889, "lon": 24.9292836, "tags": {"addr:city": "Helsinki", "addr:country": "FI", "addr:housenumber": "6", "addr:postcode": "00120", "addr:street": "Hietalahdenranta", "amenity": "bar", "diet:halal": "no", "diet:kosher": "no", "name": "Malja", "outdoor_seating": "yes", "payment:credit_cards": "yes", "payment:debit_cards": "yes", "phone": "+358 44 7094494", "website": "https://www.maljahelsinki.fi/"}}, {"type": "node", "id": 75772337, "lat": 60.1633794, "lon": 24.9206903, "tags": {"addr:city": "Helsinki", "addr:country": "FI", "addr:housenumber": "2", "addr:postcode": "00180", "addr:street": "It\u00e4merenkatu", "amenity": "fast_food", "brand": "Kotipizza", "brand:wikidata": "Q1628625", "check_date": "2024-08-17", "cuisine": "pizza", "diet:halal": "no", "diet:kosher": "no", "name": "Kotipizza", "opening_hours": "Mo-Th 10:30-21:00; Fr 10:30-22:00; Sa 12:00-22:00; Su 12:00-21:00", "payment:credit_cards": "yes", "payment:debit_cards": "yes", "takeaway": "yes", "website": "https://www.kotipizza.fi/", "wheelchair": "yes"}}, {"type": "node", "id": 76474077, "lat": 60.1790197, "lon": 24.9476688, "tags": {"addr:city": "Helsinki", "addr:country": "FI", "addr:housenumber": "6", "addr:postcode": "00530", "addr:street": "S\u00e4\u00e4st\u00f6pankinranta", "amenity": "restaurant", "contact:instagram": "https://www.instagram.com/graniittilinna/", "diet:halal": "no", "diet:kosher": "no", "email": "graniittilinna@graniittiravintolat.fi", "facebook": "https://www.facebook.com/graniittilinna/", "name": "Graniittilinna", "opening_hours": "Tu-Fr 16:00-22:00; Sa 14:00-22:00", "payment:credit_cards": "yes", "payment:debit_cards": "yes", "phone": "+358 20 742 4250", "start_date": "2004-03-26", "website": "https://www.graniittilinna.com", "wheelchair": "limited"}}, {"type": "node", "id": 76474078, "lat": 60.1789718, "lon": 24.9474542, "tags": {"addr:city": "Helsinki", "addr:country": "FI", "amenity": "restaurant", "contact:instagram": "https://www.instagram.com/juttutupa/", "diet:halal": "no", "diet:kosher": "no", "email": "juttutupa@graniittiravintolat.fi", "facebook": "https://www.facebook.com/juttutupa/", "lunch": "yes", "name": "Juttutuvan ruokasali", "opening_hours": "Mo 10:00-24:00; Tu-Th 10:00-01:00; Fr-Sa 10:00-03:00; Su 12:00-23:00", "opening_hours:brunch": "Mo-Fr 10:30-14:00", "payment:credit_cards": "yes", "payment:debit_cards": "yes", "website": "https://www.juttutupa.fi/", "wheelchair": "no"}}, {"type": "node", "id": 76474225, "lat": 60.1785669, "lon": 24.9475741, "tags": {"addr:city": "Helsinki", "addr:country": "FI", "addr:housenumber": "5", "addr:postcode": "00530", "addr:street": "Paasivuorenkatu", "amenity": "restaurant", "diet:halal": "no", "diet:kosher": "no", "name": "Paasiravintola", "payment:credit_cards": "yes", "payment:debit_cards": "yes", "website": "https://www.paasitorni.fi/tilat/paasiravintola/", "wheelchair": "yes"}}, {"type": "node", "id": 76615072, "lat": 60.169785, "lon": 24.9271007, "tags": {"addr:city": "Helsinki", "addr:country": "FI", "addr:housenumber": "23", "addr:postcode": "00100", "addr:street": "Pohjoinen Rautatiekatu", "amenity": "bar", "check_date:opening_hours": "2024-12-24", "name": "Helkan Baari", "opening_hours:signed": "no", "website": "https://www.hotelhelka.com/drink/", "wheelchair": "yes"}}, {"type": "node", "id": 76615082, "lat": 60.168829, "lon": 24.9591777, "tags": {"addr:city": "Helsinki", "addr:country": "FI", "addr:housenumber": "7", "addr:postcode": "00160", "addr:street": "Kanavaranta", "amenity": "restaurant", "diet:halal": "no", "diet:kosher": "no", "name": "Ravintola Sipuli", "opening_hours:covid19": "off", "url": "http://www.royalravintolat.com/sipuli/", "website": "https://www.ravintolasipuli.fi/", "wheelchair": "yes"}}, {"type": "node", "id": 76617692, "lat": 60.1678064, "lon": 24.9291254, "tags": {"addr:city": "Helsinki", "addr:country": "FI", "amenity": "restaurant", "diet:halal": "no", "diet:kosher": "no", "name": "Johan Ludvig"}}, {"type": "node", "id": 76624339, "lat": 60.165082, "lon": 24.9319375, "tags": {"addr:city": "Helsinki", "addr:country": "FI", "addr:housenumber": "38", "addr:postcode": "00120", "addr:street": "Albertinkatu", "amenity": "restaurant", "check_date": "2024-08-17", "cuisine": "japanese", "diet:halal": "no", "diet:kosher": "no", "indoor_seating": "yes", "name": "Shinobi", "opening_hours": "We-Th 17:00-23:00; Fr-Sa 16:00-24:00", "outdoor_seating": "no", "payment:credit_cards": "yes", "payment:debit_cards": "yes", "website": "https://www.shinobi.fi/"}}, {"type": "node", "id": 76624344, "lat": 60.1650117, "lon": 24.9316791, "tags": {"addr:city": "Helsinki", "addr:country": "FI", "addr:housenumber": "36", "addr:postcode": "00100", "addr:street": "Kalevankatu", "amenity": "bar", "check_date": "2024-08-17", "name": "Milli Miglia", "website": "https://www.facebook.com/bettolamillimiglia/"}}, {"type": "node", "id": 76624351, "lat": 60.1652785, "lon": 24.9295242, "tags": {"addr:city": "Helsinki", "addr:country": "FI", "addr:street": "Eerikinkatu", "amenity": "restaurant", "cuisine": "mexican", "delivery:covid19": "only", "diet:halal": "no", "diet:kosher": "no", "name": "Pueblo", "opening_hours:covid19": "Mo-Sa 11:00-21:30; Su 11:00-17:00", "payment:credit_cards": "yes", "payment:debit_cards": "yes", "phone": "+358 44 2444022", "takeaway:covid19": "only", "website": "https://pueblobar.fi/"}}, {"type": "node", "id": 77642757, "lat": 60.1626526, "lon": 24.9331385, "tags": {"addr:city": "Helsinki", "addr:housenumber": "40", "addr:postcode": "00120", "addr:street": "Bulevardi", "amenity": "restaurant", "diet:halal": "no", "diet:kosher": "no", "email": "myynti@soupster.com", "internet_access": "wlan", "internet_access:fee": "no", "name": "Southpark", "opening_hours": "Mo-Sa 11:00-15:00; Su 10:30-17:00", "opening_hours:brunch": "Sa-Su 10:00-15:00", "opening_hours:covid19": "off", "payment:credit_cards": "yes", "payment:debit_cards": "yes", "website": "https://www.southparkrestaurant.fi/"}}, {"type": "node", "id": 77819321, "lat": 60.1608409, "lon": 24.9263418}, {"type": "node", "id": 90738641, "lat": 60.2229503, "lon": 25.0212367}, {"type": "node", "id": 92758232, "lat": 60.1800389, "lon": 24.948693, "tags": {"addr:city": "Helsinki", "addr:country": "FI", "addr:housenumber": "18-20", "addr:postcode": "00530", "addr:street": "Siltasaarenkatu", "amenity": "restaurant", "cuisine": "italian", "diet:halal": "no", "diet:kosher": "no", "diet:vegan": "yes", "diet:vegetarian": "yes", "indoor_seating": "yes", "name": "Memphis", "opening_hours": "Mo-Th 11:00-22:00; Fr 11:00-23:00; Sa 12:00-23:00; Su 12:00-20:00", "outdoor_seating": "no", "payment:credit_cards": "yes", "payment:debit_cards": "yes", "phone": "+358 10 7664120", "ref": "883", "toilets:wheelchair": "yes", "url": "http://www.rosso.fi/hki_ympyratalo.html", "website": "https://www.raflaamo.fi/fi/helsinki/memphis-hakaniemi", "wheelchair": "limited"}}, {"type": "node", "id": 92759717, "lat": 60.180184, "lon": 24.9494912, "tags": {"addr:city": "Helsinki", "addr:country": "FI", "addr:housenumber": "18", "addr:postcode": "00530", "addr:street": "Siltasaarenkatu", "amenity": "atm", "cash_in": "yes", "check_date": "2024-10-01", "indoor": "yes", "name": "Otto", "operator": "Suomen Automatia Oy", "website": "https://otto.fi/", "wheelchair": "yes"}}, {"type": "node", "id": 92760444, "lat": 60.1801596, "lon": 24.9494202, "tags": {"addr:city": "Helsinki", "addr:country": "FI", "addr:housenumber": "18", "addr:postcode": "00530", "addr:street": "Siltasaarenkatu", "amenity": "pharmacy", "contact:facebook": "https://www.facebook.com/apteekki360/", "dispensing": "yes", "drive_through": "no", "email": "info@apteekki360.fi", "established": "1887", "fax": "029 3400 689", "healthcare": "pharmacy", "name": "Apteekki 360", "old_name": "Hakaniemen apteekki", "opening_hours": "Mo-Fr 08:00-20:00; Sa 10:00-18:00; Su 12:00-16:00", "phone": "0293400680", "website": "https://apteekki360.fi/", "wheelchair": "limited"}}, {"type": "node", "id": 92765314, "lat": 60.1788226, "lon": 24.9496468, "tags": {"addr:city": "Helsinki", "addr:postcode": "00530", "addr:street": "Siltasaarenkatu", "amenity": "atm", "cash_in": "no", "check_date": "2023-08-26", "indoor": "no", "name": "Otto. automaatti", "operator": "Suomen Automatia Oy", "website": "https://www.otto.fi", "wheelchair": "yes"}}, {"type": "node", "id": 92766840, "lat": 60.1794166, "lon": 24.9493339, "tags": {"addr:city": "Helsinki", "addr:country": "FI", "addr:housenumber": "2", "addr:postcode": "00530", "addr:street": "S\u00e4\u00e4st\u00f6pankinranta", "amenity": "atm", "name": "Otto. automaatti", "operator": "Suomen Automatia Oy", "website": "https://www.otto.fi/", "wheelchair": "yes"}}, {"type": "node", "id": 92767141, "lat": 60.1793952, "lon": 24.9491622, "tags": {"addr:city": "Helsinki", "addr:country": "FI", "amenity": "post_box"}}, {"type": "node", "id": 93455942, "lat": 60.172137, "lon": 24.9457455, "tags": {"addr:city": "Helsinki", "addr:housenumber": "23", "addr:postcode": "00100", "addr:street": "Mikonkatu", "amenity": "restaurant", "diet:halal": "no", "diet:kosher": "no", "name": "Bistro Vilho", "note": "Radisson Blu Hotel's restaurant", "opening_hours:covid19": "off", "payment:credit_cards": "yes", "payment:debit_cards": "yes", "website": "https://raflaamo.fi/fi/ravintola/helsinki/bistro-vilho", "wheelchair": "yes"}}, {"type": "node", "id": 103676221, "lat": 60.1796029, "lon": 24.9541337, "tags": {"amenity": "post_box", "collection_times": "Mo-Fr 14:00"}}, {"type": "node", "id": 103678074, "lat": 60.1784922, "lon": 24.9526551, "tags": {"amenity": "toilets", "fee": "no", "wheelchair": "yes"}}, {"type": "node", "id": 116703845, "lat": 60.1681411, "lon": 24.9306796, "tags": {"addr:city": "Helsinki", "addr:housenumber": "2", "addr:postcode": "00120", "addr:street": "Kampinkuja", "amenity": "cafe", "brand": "Robert's Coffee", "brand:wikidata": "Q1445337", "brand:wikipedia": "fi:Robert's Coffee", "contact:phone": "+35895865866", "contact:website": "https://robertscoffee.com/cafe/kamppi/", "diet:halal": "no", "diet:kosher": "no", "dog": "yes", "internet_access": "wlan", "name": "Robert's Coffee", "opening_hours": "Mo-Fr 07:30-19:30; Sa 09:00-18:00; Su off"}}, {"type": "node", "id": 130034046, "lat": 60.1901953, "lon": 24.9071369}, {"type": "node", "id": 130034047, "lat": 60.1901261, "lon": 24.9073024}, {"type": "node", "id": 142054953, "lat": 60.171804, "lon": 24.9449394}, {"type": "node", "id": 144181178, "lat": 60.1661296, "lon": 24.9234637}, {"type": "node", "id": 144181181, "lat": 60.1661212, "lon": 24.9235779}, {"type": "node", "id": 144181189, "lat": 60.1662075, "lon": 24.9236235}, {"type": "node", "id": 146125361, "lat": 60.1663953, "lon": 24.9241484}, {"type": "node", "id": 146125391, "lat": 60.1662607, "lon": 24.9251864}, {"type": "node", "id": 146125394, "lat": 60.1663975, "lon": 24.92355}, {"type": "node", "id": 146125397, "lat": 60.1669588, "lon": 24.9238457}, {"type": "node", "id": 146125411, "lat": 60.1663858, "lon": 24.9236394}, {"type": "node", "id": 146125412, "lat": 60.166214, "lon": 24.9235735}, {"type": "node", "id": 150541351, "lat": 60.1723942, "lon": 24.9376545, "tags": {"addr:city": "Helsinki", "addr:housenumber": "2", "addr:postcode": "00100", "addr:street": "Postikuja", "amenity": "restaurant", "cuisine": "asian", "diet:halal": "no", "diet:kosher": "no", "level": "2", "name": "Red Apple", "payment:credit_cards": "yes", "payment:debit_cards": "yes", "wheelchair": "yes"}}, {"type": "node", "id": 150548869, "lat": 60.1653154, "lon": 24.9225546}, {"type": "node", "id": 150548879, "lat": 60.164953, "lon": 24.9225923}, {"type": "node", "id": 150548881, "lat": 60.1657982, "lon": 24.9229279}, {"type": "node", "id": 150553423, "lat": 60.1658141, "lon": 24.9227539}, {"type": "node", "id": 150553424, "lat": 60.1649269, "lon": 24.9222577}, {"type": "node", "id": 150553425, "lat": 60.1652625, "lon": 24.9222615}, {"type": "node", "id": 150553426, "lat": 60.1652574, "lon": 24.9225237}, {"type": "node", "id": 150998471, "lat": 60.1618989, "lon": 24.9445494}, {"type": "node", "id": 150998957, "lat": 60.1626443, "lon": 24.942996}, {"type": "node", "id": 150998958, "lat": 60.1627101, "lon": 24.9431901}, {"type": "node", "id": 150998961, "lat": 60.1628432, "lon": 24.9435841}, {"type": "node", "id": 150998964, "lat": 60.1624412, "lon": 24.9432661}, {"type": "node", "id": 150998977, "lat": 60.1628299, "lon": 24.9444182}, {"type": "node", "id": 150998978, "lat": 60.1630319, "lon": 24.9441415}, {"type": "node", "id": 150998979, "lat": 60.1632509, "lon": 24.9447875}, {"type": "node", "id": 150998980, "lat": 60.1630926, "lon": 24.9450044}, {"type": "node", "id": 150999316, "lat": 60.1670873, "lon": 24.9317399}, {"type": "node", "id": 150999318, "lat": 60.1667563, "lon": 24.9312554}, {"type": "node", "id": 150999321, "lat": 60.1672338, "lon": 24.931818}, {"type": "node", "id": 150999494, "lat": 60.1667254, "lon": 24.9314921}, {"type": "node", "id": 150999495, "lat": 60.1666828, "lon": 24.9318215}, {"type": "node", "id": 150999496, "lat": 60.1670293, "lon": 24.932006}, {"type": "node", "id": 150999498, "lat": 60.1669907, "lon": 24.9322995}, {"type": "node", "id": 150999500, "lat": 60.166796, "lon": 24.9322972}, {"type": "node", "id": 150999501, "lat": 60.1667774, "lon": 24.9322626}, {"type": "node", "id": 150999502, "lat": 60.1667274, "lon": 24.9322469}, {"type": "node", "id": 150999503, "lat": 60.1667103, "lon": 24.9322568}, {"type": "node", "id": 150999504, "lat": 60.1666671, "lon": 24.9323884}, {"type": "node", "id": 150999505, "lat": 60.1668432, "lon": 24.9330571}, {"type": "node", "id": 150999513, "lat": 60.1666285, "lon": 24.9311474}, {"type": "node", "id": 151000540, "lat": 60.1855744, "lon": 24.9377752}, {"type": "node", "id": 151001938, "lat": 60.1684182, "lon": 24.9601257}, {"type": "node", "id": 151001939, "lat": 60.1684036, "lon": 24.9596912}, {"type": "node", "id": 151001940, "lat": 60.1686055, "lon": 24.9596639}, {"type": "node", "id": 151001941, "lat": 60.1686299, "lon": 24.9601179}, {"type": "node", "id": 151001942, "lat": 60.168576, "lon": 24.9601604}, {"type": "node", "id": 151001943, "lat": 60.1685452, "lon": 24.9602509}, {"type": "node", "id": 151001944, "lat": 60.1685176, "lon": 24.9602549}, {"type": "node", "id": 151001945, "lat": 60.1684272, "lon": 24.9601638}, {"type": "node", "id": 151001946, "lat": 60.1684241, "lon": 24.9601249}, {"type": "node", "id": 151001950, "lat": 60.1685668, "lon": 24.960216}, {"type": "node", "id": 151001951, "lat": 60.1685046, "lon": 24.9602444}, {"type": "node", "id": 151001955, "lat": 60.1684574, "lon": 24.9602009}, {"type": "node", "id": 151001978, "lat": 60.1683643, "lon": 24.9599605}, {"type": "node", "id": 151001980, "lat": 60.168265, "lon": 24.9598775}, {"type": "node", "id": 151001981, "lat": 60.1683612, "lon": 24.9598665}, {"type": "node", "id": 151006083, "lat": 60.1645227, "lon": 24.9364905, "tags": {"access:covid19": "no", "addr:city": "Helsinki", "addr:country": "FI", "addr:housenumber": "28", "addr:postcode": "00120", "addr:street": "Fredrikinkatu", "amenity": "cafe", "brand": "Picnic", "diet:halal": "no", "diet:kosher": "no", "diet:vegetarian": "yes", "name": "Picnic", "opening_hours": "Mo-Fr 7:00-18:00; Sa 10:00-16:00", "opening_hours:covid19": "Mo-Fr 08:00-16:00", "takeaway:covid19": "only", "website": "http://www.picnic.fi/"}}, {"type": "node", "id": 151006260, "lat": 60.1672949, "lon": 24.9365563, "tags": {"addr:city": "Helsinki", "addr:country": "FI", "addr:housenumber": "25", "addr:postcode": "00100", "addr:street": "Annankatu", "amenity": "restaurant", "diet:halal": "no", "diet:kosher": "no", "diet:vegetarian": "yes", "name": "Ravintola China", "name:fi": "Ravintola China", "name:zh": "\u4e2d\u570b\u6a13\u9152\u5bb6", "opening_hours": "Mo-Fr 11:00-23:00; Sa-Su 12:00-23:00; PH off", "payment:credit_cards": "yes", "payment:debit_cards": "yes", "short_name": "China", "wheelchair": "limited"}}, {"type": "node", "id": 151006269, "lat": 60.1672061, "lon": 24.9366771, "tags": {"addr:city": "Helsinki", "addr:country": "FI", "addr:housenumber": "23", "addr:postcode": "00100", "addr:street": "Annankatu", "amenity": "pub", "indoor_seating": "yes", "karaoke": "yes", "name": "Anna.K", "opening_hours": "Mo-Th 17:00-03:00; Fr-Su 15:00-03:00", "outdoor_seating": "yes", "payment:credit_cards": "yes", "payment:debit_cards": "yes", "website": "https://www.karaokebar.net/"}}, {"type": "node", "id": 151006411, "lat": 60.1662944, "lon": 24.9380768, "tags": {"amenity": "post_box", "check_date:collection_times": "2023-04-12", "collection_times": "Mo-Fr 14:00"}}, {"type": "node", "id": 151006483, "lat": 60.164867, "lon": 24.9381002, "tags": {"addr:city": "Helsinki", "addr:country": "FI", "addr:housenumber": "7", "addr:postcode": "00120", "addr:street": "Bulevardi", "amenity": "restaurant", "name": "Sekel"}}, {"type": "node", "id": 151006533, "lat": 60.1647366, "lon": 24.9377736, "tags": {"addr:city": "Helsinki", "addr:country": "FI", "addr:housenumber": "9", "addr:postcode": "00120", "addr:street": "Bulevardi", "amenity": "cafe", "diet:halal": "no", "diet:kosher": "no", "indoor_seating": "yes", "name": "Cafe Ekberg", "opening_hours": "Mo-Fr 7:30-19:00;Sa 8:30-17:00;Su 9:00-17:00", "outdoor_seating": "yes", "payment:credit_cards": "yes", "payment:debit_cards": "yes", "website": "https://www.cafeekberg.fi/", "wheelchair": "limited", "wikidata": "Q11857235", "wikipedia": "fi:Ekbergin kahvila"}}, {"type": "node", "id": 151006709, "lat": 60.1651791, "lon": 24.9360783, "tags": {"addr:city": "Helsinki", "addr:country": "FI", "addr:housenumber": "41", "addr:postcode": "00120", "addr:street": "Fredrikinkatu", "amenity": "cafe", "diet:halal": "no", "diet:kosher": "no", "diet:vegetarian": "yes", "indoor_seating": "yes", "name": "Kakkugalleria", "name:fi": "Kakkugalleria", "opening_hours": "Mo-Fr 10:00-19:00; Sa 10:00-19:00; Su 12:00-17:00", "outdoor_seating": "yes", "payment:credit_cards": "yes", "payment:debit_cards": "yes", "website": "https://www.kakkugalleria.com/"}}, {"type": "node", "id": 151006932, "lat": 60.1651499, "lon": 24.9356242, "tags": {"addr:city": "Helsinki", "addr:country": "FI", "addr:housenumber": "30", "addr:postcode": "00120", "addr:street": "Fredrikinkatu", "amenity": "restaurant", "cuisine": "sushi", "diet:halal": "no", "diet:kosher": "no", "indoor_seating": "yes", "name": "Haru Sushi", "opening_hours": "Mo-Fr 11:00-21:00; Sa 12:00-21:00; Su 13:00-21:00", "outdoor_seating": "no", "payment:credit_cards": "yes", "payment:debit_cards": "yes", "website": "https://www.facebook.com/Haru-sushi-1438609973105788/"}}, {"type": "node", "id": 151007074, "lat": 60.1646178, "lon": 24.9338521, "tags": {"addr:city": "Helsinki", "addr:country": "FI", "addr:housenumber": "22", "addr:postcode": "00120", "addr:street": "L\u00f6nnrotinkatu", "amenity": "restaurant", "cuisine": "japanese", "diet:halal": "no", "diet:kosher": "no", "name": "Koto", "payment:credit_cards": "yes", "payment:debit_cards": "yes"}}, {"type": "node", "id": 151007101, "lat": 60.1644392, "lon": 24.9332719, "tags": {"amenity": "atm", "cash_in": "no", "operator": "Otto", "wheelchair": "yes"}}, {"type": "node", "id": 151007198, "lat": 60.1647048, "lon": 24.9334065, "tags": {"addr:city": "Helsinki", "addr:country": "FI", "addr:housenumber": "25", "addr:postcode": "00180", "addr:street": "L\u00f6nnrotinkatu", "amenity": "pub", "email": "boothill@boothill.fi", "name": "Boothill Rock Club", "opening_hours": "Mo-Su 10:00-01:30", "payment:credit_cards": "yes", "payment:debit_cards": "yes", "phone": "09 685 6685", "short_name": "Boothill", "website": "https://www.boothill.fi/"}}, {"type": "node", "id": 151007310, "lat": 60.165002, "lon": 24.93255, "tags": {"addr:city": "Helsinki", "addr:country": "FI", "addr:housenumber": "31", "addr:postcode": "00180", "addr:street": "Albertinkatu", "amenity": "place_of_worship", "contact:website": "filahelsinki.fi", "denomination": "pentecostal", "email": "info@filahelsinki.fi", "name": "Fila Church Helsinki", "name:fi": "Fila Church Helsinki", "name:sv": "Helsingfors Filadelfiaf\u00f6rsamling", "phone": "+358 44 7345 400", "religion": "christian", "service_times": "tu 09:00-17:00 su 15:30-19:00", "website": "http://www.filahelsinki.fi/", "wikidata": "Q110311410", "wikipedia": "fi:Fila Helsinki"}}, {"type": "node", "id": 151007313, "lat": 60.1652197, "lon": 24.9322832, "tags": {"addr:city": "Helsinki", "addr:country": "FI", "amenity": "cafe", "cuisine": "international;sandwich;greek", "diet:halal": "no", "diet:kosher": "no", "diet:vegetarian": "yes", "email": "grandelicato.helsinki@gmail.com", "indoor_seating": "yes", "name": "Gran Delicato", "opening_hours": "Mo-Fr 08:00-20:00; Sa 10:00-18:00", "outdoor_seating": "no", "payment:credit_cards": "yes", "payment:debit_cards": "yes", "phone": "+358 9 6940403", "takeaway:covid19": "yes", "website": "http://www.grandelicato.fi/"}}, {"type": "node", "id": 152495020, "lat": 60.1661113, "lon": 24.925638}, {"type": "node", "id": 152495025, "lat": 60.1660597, "lon": 24.9260284}, {"type": "node", "id": 159711504, "lat": 60.1678649, "lon": 24.952677}, {"type": "node", "id": 159975170, "lat": 60.1709367, "lon": 24.9208933}, {"type": "node", "id": 161901487, "lat": 60.1755449, "lon": 24.9161672}, {"type": "node", "id": 161901488, "lat": 60.1756066, "lon": 24.9166341}, {"type": "node", "id": 173740873, "lat": 60.2046966, "lon": 24.964033}, {"type": "node", "id": 174949045, "lat": 60.1707118, "lon": 24.9251516}, {"type": "node", "id": 174949057, "lat": 60.1706606, "lon": 24.9239226}, {"type": "node", "id": 176192318, "lat": 60.1867823, "lon": 24.9512615}, {"type": "node", "id": 176216941, "lat": 60.1876547, "lon": 24.9612189}, {"type": "node", "id": 176236090, "lat": 60.172197, "lon": 24.9479112}, {"type": "node", "id": 176243748, "lat": 60.169962, "lon": 24.9383306, "tags": {"button_operated": "no", "crossing": "traffic_signals", "highway": "crossing"}}, {"type": "node", "id": 176244845, "lat": 60.1712333, "lon": 24.9360432, "tags": {"railway": "tram_level_crossing"}}, {"type": "node", "id": 176244937, "lat": 60.1710677, "lon": 24.9364585}, {"type": "node", "id": 176616615, "lat": 60.1806547, "lon": 24.9546349}, {"type": "node", "id": 176616617, "lat": 60.1808137, "lon": 24.9548992}, {"type": "node", "id": 176616619, "lat": 60.1807402, "lon": 24.9551469}, {"type": "node", "id": 176616620, "lat": 60.1805779, "lon": 24.9547024}, {"type": "node", "id": 176619486, "lat": 60.1800656, "lon": 24.9544852}, {"type": "node", "id": 176619487, "lat": 60.1800559, "lon": 24.9538922}, {"type": "node", "id": 176619501, "lat": 60.1806831, "lon": 24.9530769}, {"type": "node", "id": 176619503, "lat": 60.1802431, "lon": 24.9533731}, {"type": "node", "id": 176619504, "lat": 60.1803423, "lon": 24.9532257}, {"type": "node", "id": 176619505, "lat": 60.1801902, "lon": 24.9534505}, {"type": "node", "id": 176619510, "lat": 60.1805446, "lon": 24.9537845}, {"type": "node", "id": 176619511, "lat": 60.18045, "lon": 24.9535236}, {"type": "node", "id": 177285927, "lat": 60.1864877, "lon": 24.9475002}, {"type": "node", "id": 177383306, "lat": 60.1597845, "lon": 24.9207551}, {"type": "node", "id": 177383317, "lat": 60.159246, "lon": 24.9211496}, {"type": "node", "id": 177383323, "lat": 60.1597869, "lon": 24.9208053}, {"type": "node", "id": 177383336, "lat": 60.1597982, "lon": 24.9210381}, {"type": "node", "id": 177629226, "lat": 60.2051866, "lon": 24.9650485}, {"type": "node", "id": 177629228, "lat": 60.2048292, "lon": 24.9643059}, {"type": "node", "id": 177862735, "lat": 60.1800764, "lon": 24.9508838}, {"type": "node", "id": 177862742, "lat": 60.1800555, "lon": 24.9509147}, {"type": "node", "id": 177862746, "lat": 60.18023, "lon": 24.951303}, {"type": "node", "id": 177862749, "lat": 60.1802092, "lon": 24.9513338}, {"type": "node", "id": 177862752, "lat": 60.1802646, "lon": 24.9514876}, {"type": "node", "id": 177862754, "lat": 60.180279, "lon": 24.9515271}, {"type": "node", "id": 177862757, "lat": 60.1799796, "lon": 24.9519659}, {"type": "node", "id": 177862761, "lat": 60.1799658, "lon": 24.9519283}, {"type": "node", "id": 178602395, "lat": 60.1707048, "lon": 24.9372149, "tags": {"button_operated": "no", "crossing": "traffic_signals", "crossing:island": "yes", "highway": "crossing", "py\u00f6r\u00e4_v\u00e4ist\u00e4\u00e4_aina_autoa": "jep_jos_valoton", "traffic_signals:sound": "yes", "traffic_signals:vibration": "no"}}, {"type": "node", "id": 179626533, "lat": 60.1680317, "lon": 24.9535321}, {"type": "node", "id": 179626534, "lat": 60.1679992, "lon": 24.9522551}, {"type": "node", "id": 179626540, "lat": 60.1684943, "lon": 24.9530959}, {"type": "node", "id": 179626541, "lat": 60.1684993, "lon": 24.9533073}, {"type": "node", "id": 179628288, "lat": 60.1680801, "lon": 24.9552288}, {"type": "node", "id": 179628292, "lat": 60.1685634, "lon": 24.9555014}, {"type": "node", "id": 179628293, "lat": 60.1685613, "lon": 24.9554198}, {"type": "node", "id": 179769782, "lat": 60.171962, "lon": 24.9514115}, {"type": "node", "id": 179770268, "lat": 60.17227, "lon": 24.9507708}, {"type": "node", "id": 179772478, "lat": 60.1716205, "lon": 24.9522149}, {"type": "node", "id": 179772481, "lat": 60.1724816, "lon": 24.9526993}, {"type": "node", "id": 179772483, "lat": 60.1726229, "lon": 24.9526821}, {"type": "node", "id": 179772484, "lat": 60.1726309, "lon": 24.9529459}, {"type": "node", "id": 179772485, "lat": 60.1722057, "lon": 24.9528136}, {"type": "node", "id": 179772487, "lat": 60.1722136, "lon": 24.9530757}, {"type": "node", "id": 179776464, "lat": 60.17339, "lon": 24.9506535}, {"type": "node", "id": 179777325, "lat": 60.1740016, "lon": 24.952498}, {"type": "node", "id": 179777326, "lat": 60.1740123, "lon": 24.9529198}, {"type": "node", "id": 179777822, "lat": 60.1737357, "lon": 24.9529521}, {"type": "node", "id": 179777823, "lat": 60.173322, "lon": 24.9529986}, {"type": "node", "id": 179781281, "lat": 60.1755088, "lon": 24.9513878}, {"type": "node", "id": 179781282, "lat": 60.1755267, "lon": 24.9519696}, {"type": "node", "id": 179781289, "lat": 60.175404, "lon": 24.9513976}, {"type": "node", "id": 179782778, "lat": 60.1749981, "lon": 24.9517871}, {"type": "node", "id": 179782779, "lat": 60.1750167, "lon": 24.9528}, {"type": "node", "id": 179787826, "lat": 60.1746175, "lon": 24.9528242}, {"type": "node", "id": 179787829, "lat": 60.174583, "lon": 24.9514857}, {"type": "node", "id": 179793415, "lat": 60.1760394, "lon": 24.9535246}, {"type": "node", "id": 179793453, "lat": 60.1751644, "lon": 24.9547697}, {"type": "node", "id": 189363102, "lat": 60.1815665, "lon": 24.9274171, "tags": {"crossing": "traffic_signals", "highway": "crossing", "traffic_signals:vibration": "no"}}, {"type": "node", "id": 189432281, "lat": 60.170807, "lon": 24.9453067}, {"type": "node", "id": 201671473, "lat": 60.1692675, "lon": 24.9510527}, {"type": "node", "id": 203802128, "lat": 60.1859482, "lon": 24.9405472, "tags": {"railway": "tram_level_crossing"}}, {"type": "node", "id": 206104951, "lat": 60.1703305, "lon": 24.9498539}, {"type": "node", "id": 206104952, "lat": 60.1702212, "lon": 24.949972}, {"type": "node", "id": 207107581, "lat": 60.1803856, "lon": 24.9518554, "tags": {"addr:city": "Helsinki", "addr:country": "FI", "addr:housenumber": "1", "addr:street": "H\u00e4meentie", "amenity": "restaurant", "check_date:opening_hours": "2023-06-19", "cuisine": "regional", "diet:halal": "no", "diet:kosher": "no", "lunch": "yes", "name": "Lounaskahvila Raiku", "opening_hours": "Mo-Fr 11:00-15:00", "payment:credit_cards": "yes", "payment:debit_cards": "yes"}}, {"type": "node", "id": 208714981, "lat": 60.1817357, "lon": 24.9600167}, {"type": "node", "id": 208715726, "lat": 60.182303, "lon": 24.9596673}, {"type": "node", "id": 208715727, "lat": 60.1824647, "lon": 24.9600102}, {"type": "node", "id": 208715728, "lat": 60.1821864, "lon": 24.9606871}, {"type": "node", "id": 208715729, "lat": 60.1817426, "lon": 24.9603905}, {"type": "node", "id": 210635135, "lat": 60.1789545, "lon": 24.9470071}, {"type": "node", "id": 210635143, "lat": 60.178529, "lon": 24.947015}, {"type": "node", "id": 210635145, "lat": 60.1788033, "lon": 24.9469834}, {"type": "node", "id": 210635146, "lat": 60.1788054, "lon": 24.947027}, {"type": "node", "id": 210640067, "lat": 60.1787415, "lon": 24.9473785}, {"type": "node", "id": 210640072, "lat": 60.1788184, "lon": 24.9473722}, {"type": "node", "id": 210641896, "lat": 60.1790501, "lon": 24.9480314}, {"type": "node", "id": 218830475, "lat": 60.1755838, "lon": 24.9260433}, {"type": "node", "id": 225680443, "lat": 60.1689332, "lon": 24.927081}, {"type": "node", "id": 225680446, "lat": 60.1688139, "lon": 24.9267386}, {"type": "node", "id": 229054845, "lat": 60.1725841, "lon": 24.9400611, "tags": {"amenity": "waste_basket", "recycling:paper": "yes"}}, {"type": "node", "id": 229174383, "lat": 60.1671516, "lon": 24.9419614, "tags": {"addr:city": "Helsinki", "addr:country": "FI", "addr:housenumber": "6", "addr:postcode": "00100", "addr:street": "Mannerheimintie", "amenity": "pub", "name": "Chaplin", "opening_hours": "Mo 12:00-01:00; Tu-Th 12:00-02:00; Fr-Sa 12:00-04:30; Su 12:00-01:00", "wheelchair": "yes"}}, {"type": "node", "id": 231281950, "lat": 60.1675439, "lon": 24.9284052}, {"type": "node", "id": 231304678, "lat": 60.1675283, "lon": 24.9285156}, {"type": "node", "id": 235379000, "lat": 60.1647517, "lon": 24.9265623}, {"type": "node", "id": 235379092, "lat": 60.1649155, "lon": 24.9263072}, {"type": "node", "id": 237935422, "lat": 60.1721058, "lon": 24.9527469}, {"type": "node", "id": 237935423, "lat": 60.1722308, "lon": 24.9527314}, {"type": "node", "id": 237935424, "lat": 60.1722211, "lon": 24.9524138}, {"type": "node", "id": 237935426, "lat": 60.172096, "lon": 24.9524293}, {"type": "node", "id": 238211296, "lat": 60.1724221, "lon": 24.9566362, "tags": {"amenity": "vending_machine", "check_date": "2021-08-13", "currency:EUR": "yes", "opening_hours": "Mo-Fr 09:00-19:00", "operator": "HKR", "parking:ticket:zone": "2", "payment:coins": "yes", "ref": "146", "vending": "parking_tickets"}}, {"type": "node", "id": 239452888, "lat": 60.1750851, "lon": 24.955122}, {"type": "node", "id": 239452895, "lat": 60.175094, "lon": 24.9554044}, {"type": "node", "id": 239457930, "lat": 60.1747822, "lon": 24.9561989}, {"type": "node", "id": 239457932, "lat": 60.1747888, "lon": 24.9563894}, {"type": "node", "id": 239459014, "lat": 60.1748463, "lon": 24.9559449}, {"type": "node", "id": 239459015, "lat": 60.1749477, "lon": 24.9559324}, {"type": "node", "id": 239459022, "lat": 60.1747804, "lon": 24.9561458}, {"type": "node", "id": 239459027, "lat": 60.1747738, "lon": 24.9559528}, {"type": "node", "id": 239460157, "lat": 60.1742451, "lon": 24.9559088}, {"type": "node", "id": 239460159, "lat": 60.1746838, "lon": 24.955215}, {"type": "node", "id": 239460162, "lat": 60.1746968, "lon": 24.9557227}, {"type": "node", "id": 239462999, "lat": 60.1742685, "lon": 24.9567217}, {"type": "node", "id": 239468424, "lat": 60.1694961, "lon": 24.9483197}, {"type": "node", "id": 240069644, "lat": 60.1727309, "lon": 24.9441483}, {"type": "node", "id": 240069903, "lat": 60.1726087, "lon": 24.9434844}, {"type": "node", "id": 240069904, "lat": 60.1727349, "lon": 24.9434621}, {"type": "node", "id": 240070468, "lat": 60.1726285, "lon": 24.9441596}, {"type": "node", "id": 240267805, "lat": 60.1671327, "lon": 24.9390781}, {"type": "node", "id": 240267810, "lat": 60.1673436, "lon": 24.9387865}, {"type": "node", "id": 240267811, "lat": 60.1674637, "lon": 24.9386205}, {"type": "node", "id": 240272679, "lat": 60.1667708, "lon": 24.9380204}, {"type": "node", "id": 240272683, "lat": 60.1672111, "lon": 24.9378884}, {"type": "node", "id": 240272684, "lat": 60.167108, "lon": 24.9380508}, {"type": "node", "id": 240272685, "lat": 60.1670566, "lon": 24.9379019}, {"type": "node", "id": 240272686, "lat": 60.1669943, "lon": 24.937988}, {"type": "node", "id": 240272689, "lat": 60.1671238, "lon": 24.9390523}, {"type": "node", "id": 240272690, "lat": 60.1667837, "lon": 24.9380581}, {"type": "node", "id": 240272691, "lat": 60.1669665, "lon": 24.9377498}, {"type": "node", "id": 241019179, "lat": 60.167688, "lon": 24.9501894}, {"type": "node", "id": 241019181, "lat": 60.1677366, "lon": 24.9501849}, {"type": "node", "id": 241019183, "lat": 60.1677405, "lon": 24.9503585}, {"type": "node", "id": 241019184, "lat": 60.1676919, "lon": 24.950363}, {"type": "node", "id": 241038420, "lat": 60.1662793, "lon": 24.9459785}, {"type": "node", "id": 241038421, "lat": 60.1662933, "lon": 24.9462181}, {"type": "node", "id": 241038422, "lat": 60.1663631, "lon": 24.9462305}, {"type": "node", "id": 241038427, "lat": 60.1661194, "lon": 24.9459958}, {"type": "node", "id": 241038938, "lat": 60.1663149, "lon": 24.9466505}, {"type": "node", "id": 241038939, "lat": 60.1663155, "lon": 24.9466778}, {"type": "node", "id": 241038940, "lat": 60.1663779, "lon": 24.9466735}, {"type": "node", "id": 241038941, "lat": 60.1663708, "lon": 24.9464482}, {"type": "node", "id": 241045623, "lat": 60.1648341, "lon": 24.945451}, {"type": "node", "id": 241046096, "lat": 60.1649347, "lon": 24.9450036}, {"type": "node", "id": 241046097, "lat": 60.1650179, "lon": 24.9451101}, {"type": "node", "id": 241046098, "lat": 60.1650895, "lon": 24.9451862}, {"type": "node", "id": 241046099, "lat": 60.1650834, "lon": 24.9449853}, {"type": "node", "id": 241046373, "lat": 60.1651986, "lon": 24.9450226}, {"type": "node", "id": 241046376, "lat": 60.1652029, "lon": 24.9451651}, {"type": "node", "id": 241046377, "lat": 60.1653581, "lon": 24.945146}, {"type": "node", "id": 241046378, "lat": 60.1653538, "lon": 24.9450035}, {"type": "node", "id": 241060548, "lat": 60.1652551, "lon": 24.9504621}, {"type": "node", "id": 241060550, "lat": 60.1652808, "lon": 24.9502679}, {"type": "node", "id": 241065759, "lat": 60.162615, "lon": 24.9490208}, {"type": "node", "id": 241065760, "lat": 60.1626211, "lon": 24.9494771}, {"type": "node", "id": 241066599, "lat": 60.1626017, "lon": 24.9483001}, {"type": "node", "id": 241066955, "lat": 60.1626232, "lon": 24.9496331}, {"type": "node", "id": 241066956, "lat": 60.16263, "lon": 24.9499029}, {"type": "node", "id": 241066958, "lat": 60.1623989, "lon": 24.9499267}, {"type": "node", "id": 241072195, "lat": 60.1612489, "lon": 24.9500611}, {"type": "node", "id": 241072196, "lat": 60.1612568, "lon": 24.9503878}, {"type": "node", "id": 241072198, "lat": 60.1613647, "lon": 24.9503771}, {"type": "node", "id": 241072659, "lat": 60.1609652, "lon": 24.9501045}, {"type": "node", "id": 241072660, "lat": 60.160756, "lon": 24.9501307}, {"type": "node", "id": 241073131, "lat": 60.1620518, "lon": 24.949969}, {"type": "node", "id": 241073133, "lat": 60.1620609, "lon": 24.9502886}, {"type": "node", "id": 241073134, "lat": 60.1619642, "lon": 24.9502996}, {"type": "node", "id": 241079128, "lat": 60.1591139, "lon": 24.9543315}, {"type": "node", "id": 241079130, "lat": 60.1592934, "lon": 24.9545104}, {"type": "node", "id": 241079131, "lat": 60.1592101, "lon": 24.9541913}, {"type": "node", "id": 241079132, "lat": 60.1592296, "lon": 24.9541881}, {"type": "node", "id": 241079133, "lat": 60.1592716, "lon": 24.9541799}, {"type": "node", "id": 241079134, "lat": 60.1592152, "lon": 24.9541083}, {"type": "node", "id": 241079136, "lat": 60.1592147, "lon": 24.9541439}, {"type": "node", "id": 241079137, "lat": 60.1591945, "lon": 24.9541312}, {"type": "node", "id": 241079138, "lat": 60.1591733, "lon": 24.9541536}, {"type": "node", "id": 241079140, "lat": 60.1591034, "lon": 24.9541956}, {"type": "node", "id": 241079143, "lat": 60.1590379, "lon": 24.954242}, {"type": "node", "id": 241527525, "lat": 60.1635279, "lon": 24.950781}, {"type": "node", "id": 241527526, "lat": 60.1635399, "lon": 24.9511845}, {"type": "node", "id": 241527527, "lat": 60.1634722, "lon": 24.951405}, {"type": "node", "id": 241527528, "lat": 60.1630871, "lon": 24.9514515}, {"type": "node", "id": 241528621, "lat": 60.1632275, "lon": 24.9517605}, {"type": "node", "id": 241528623, "lat": 60.1633542, "lon": 24.9517506}, {"type": "node", "id": 241528626, "lat": 60.1634115, "lon": 24.9522036}, {"type": "node", "id": 241528628, "lat": 60.163216, "lon": 24.9521462}, {"type": "node", "id": 241821681, "lat": 60.1609858, "lon": 24.9581417}, {"type": "node", "id": 241821682, "lat": 60.1611541, "lon": 24.9585991}, {"type": "node", "id": 241821683, "lat": 60.1605523, "lon": 24.9594933}, {"type": "node", "id": 241821684, "lat": 60.1603703, "lon": 24.9590562}, {"type": "node", "id": 241822114, "lat": 60.1606039, "lon": 24.9594166}, {"type": "node", "id": 241822164, "lat": 60.1605778, "lon": 24.9594554}, {"type": "node", "id": 241859912, "lat": 60.17448, "lon": 24.9567056}, {"type": "node", "id": 243152882, "lat": 60.1633907, "lon": 24.9309992}, {"type": "node", "id": 243152884, "lat": 60.1634788, "lon": 24.9312494}, {"type": "node", "id": 243152888, "lat": 60.1633879, "lon": 24.9313788}, {"type": "node", "id": 243152895, "lat": 60.1632695, "lon": 24.9312881}, {"type": "node", "id": 243152897, "lat": 60.1630563, "lon": 24.9315915}, {"type": "node", "id": 243152905, "lat": 60.1630577, "lon": 24.9318537}, {"type": "node", "id": 243152908, "lat": 60.1629693, "lon": 24.9319796}, {"type": "node", "id": 243157669, "lat": 60.1630037, "lon": 24.9320765}, {"type": "node", "id": 243157672, "lat": 60.163421, "lon": 24.9314866}, {"type": "node", "id": 243157673, "lat": 60.1635791, "lon": 24.9315121}, {"type": "node", "id": 243157678, "lat": 60.1639304, "lon": 24.9336489}, {"type": "node", "id": 243157680, "lat": 60.1634709, "lon": 24.9323397}, {"type": "node", "id": 243182257, "lat": 60.1648187, "lon": 24.9449459}, {"type": "node", "id": 243182258, "lat": 60.1648231, "lon": 24.94509}, {"type": "node", "id": 246585172, "lat": 60.1800893, "lon": 24.9592861}, {"type": "node", "id": 246585682, "lat": 60.1819228, "lon": 24.9596382}, {"type": "node", "id": 246588599, "lat": 60.1661554, "lon": 24.9329098}, {"type": "node", "id": 246588602, "lat": 60.1658976, "lon": 24.9332704}, {"type": "node", "id": 246588755, "lat": 60.1657644, "lon": 24.9328022}, {"type": "node", "id": 246588759, "lat": 60.1658717, "lon": 24.9326493}, {"type": "node", "id": 246589523, "lat": 60.1658165, "lon": 24.9324968}, {"type": "node", "id": 247140059, "lat": 60.1633221, "lon": 24.93587}, {"type": "node", "id": 247140073, "lat": 60.1635622, "lon": 24.9365668}, {"type": "node", "id": 247140078, "lat": 60.1636855, "lon": 24.9367322}, {"type": "node", "id": 247140079, "lat": 60.1638405, "lon": 24.9365183}, {"type": "node", "id": 247140082, "lat": 60.1634332, "lon": 24.9360228}, {"type": "node", "id": 247140091, "lat": 60.1643409, "lon": 24.9393497}, {"type": "node", "id": 247140092, "lat": 60.1642664, "lon": 24.9391314}, {"type": "node", "id": 247140101, "lat": 60.1644598, "lon": 24.937774}, {"type": "node", "id": 247140102, "lat": 60.1643221, "lon": 24.9379659}, {"type": "node", "id": 247140103, "lat": 60.164215, "lon": 24.9376553}, {"type": "node", "id": 247140104, "lat": 60.1640403, "lon": 24.937935}, {"type": "node", "id": 247140128, "lat": 60.1650214, "lon": 24.9399705}, {"type": "node", "id": 247140129, "lat": 60.1649207, "lon": 24.9401716}, {"type": "node", "id": 247140130, "lat": 60.1650162, "lon": 24.9404479}, {"type": "node", "id": 247140131, "lat": 60.1651185, "lon": 24.9402512}, {"type": "node", "id": 247140132, "lat": 60.1651648, "lon": 24.9403865}, {"type": "node", "id": 247140134, "lat": 60.1650499, "lon": 24.9405788}, {"type": "node", "id": 247140135, "lat": 60.1651618, "lon": 24.9409025}, {"type": "node", "id": 247140136, "lat": 60.1652841, "lon": 24.9407317}, {"type": "node", "id": 247140160, "lat": 60.1653279, "lon": 24.9415931}, {"type": "node", "id": 247140161, "lat": 60.1654252, "lon": 24.9418738}, {"type": "node", "id": 247140168, "lat": 60.1654532, "lon": 24.941228}, {"type": "node", "id": 247140169, "lat": 60.1653484, "lon": 24.940925}, {"type": "node", "id": 247140170, "lat": 60.1652303, "lon": 24.9411991}, {"type": "node", "id": 247140171, "lat": 60.1652065, "lon": 24.9411305}, {"type": "node", "id": 247140172, "lat": 60.1651811, "lon": 24.941166}, {"type": "node", "id": 247155970, "lat": 60.1677068, "lon": 24.9363589, "tags": {"addr:city": "Helsinki", "addr:country": "FI", "addr:housenumber": "3", "addr:postcode": "00100", "addr:street": "Eerikinkatu", "amenity": "nightclub", "check_date": "2023-07-11", "erotic": "yes", "name": "Alcatraz Club", "opening_hours": "Mo-Su 20:00-04:00", "website": "https://www.alcatraz.fi/"}}, {"type": "node", "id": 247156695, "lat": 60.1677885, "lon": 24.9372757, "tags": {"addr:city": "Helsinki", "addr:country": "FI", "addr:housenumber": "2", "addr:postcode": "00100", "addr:street": "Eerikinkatu", "address": "Eerikinkatu 2", "amenity": "pub", "name": "Pub Per\u00e4kammari", "opening_hours": "14:00-02:00; We-Sa 14:00-05:00", "payment:credit_cards": "yes", "payment:debit_cards": "yes", "website": "https://www.facebook.com/PubPerakammari/"}}, {"type": "node", "id": 247158305, "lat": 60.1676913, "lon": 24.9377756, "tags": {"addr:city": "Helsinki", "addr:country": "FI", "addr:housenumber": "30", "addr:postcode": "00100", "addr:street": "Yrj\u00f6nkatu", "amenity": "theatre", "name": "Lilla Teatern", "website": "https://www.hkt.fi/lillateatern", "wheelchair": "no", "wikidata": "Q10561778", "wikimedia_commons": "Category:Lilla teatern", "wikipedia": "fi:Lilla Teatern"}}, {"type": "node", "id": 247321701, "lat": 60.1628687, "lon": 24.9410509}, {"type": "node", "id": 247321717, "lat": 60.162883, "lon": 24.9411557}, {"type": "node", "id": 247321718, "lat": 60.1627984, "lon": 24.9412709}, {"type": "node", "id": 247360604, "lat": 60.1609612, "lon": 24.9484993}, {"type": "node", "id": 247416118, "lat": 60.1710001, "lon": 24.9444687, "tags": {"addr:city": "Helsinki", "addr:postcode": "00100", "addr:street": "Rautatientori", "amenity": "fast_food", "indoor_seating": "no", "name": "Helsingin pystygrilli", "note": "tilap\u00e4inen", "outdoor_seating": "no", "takeaway": "only"}}, {"type": "node", "id": 248179520, "lat": 60.1794287, "lon": 24.9238507, "tags": {"addr:city": "Helsinki", "addr:country": "FI", "addr:housenumber": "55a", "addr:postcode": "00260", "addr:street": "Runeberginkatu", "amenity": "restaurant", "check_date:opening_hours": "2024-08-05", "diet:halal": "no", "diet:kosher": "no", "name": "Mamma Rosa", "opening_hours:signed": "no", "operator": "Kaukoravintolat Oy", "toilets:wheelchair": "yes", "website": "https://www.mammarosa.fi/", "wheelchair": "limited"}}, {"type": "node", "id": 248184217, "lat": 60.1674892, "lon": 24.9429497}, {"type": "node", "id": 248184222, "lat": 60.1674015, "lon": 24.9428539}, {"type": "node", "id": 248184224, "lat": 60.1672904, "lon": 24.9428987}, {"type": "node", "id": 248184225, "lat": 60.1672282, "lon": 24.9430631}, {"type": "node", "id": 248320838, "lat": 60.1765181, "lon": 24.922602, "tags": {"amenity": "post_box", "check_date:collection_times": "2021-06-08", "collection_times": "Mo-Fr 14:00"}}, {"type": "node", "id": 248320843, "lat": 60.1752285, "lon": 24.9214353, "tags": {"amenity": "atm", "name": "Otto", "operator": "Otto"}}, {"type": "node", "id": 248323073, "lat": 60.1747054, "lon": 24.9282334, "tags": {"amenity": "post_box", "collection_times": "Mo-Fr 14:00"}}, {"type": "node", "id": 248327110, "lat": 60.1743385, "lon": 24.9307212, "tags": {"addr:street": "Museokatu", "amenity": "taxi", "check_date": "2023-08-06"}}, {"type": "node", "id": 248327691, "lat": 60.1725576, "lon": 24.9315669, "tags": {"amenity": "library", "name": "Eduskunnan kirjasto", "name:sv": "Riksdagens bibliotek", "note": "Evakossa postitalossa vakituisten tilojen peruskorjauksen ajan.", "wheelchair": "yes", "wikidata": "Q10655173", "wikipedia": "fi:Eduskunnan kirjasto"}}, {"type": "node", "id": 248343226, "lat": 60.1678963, "lon": 24.935711, "tags": {"addr:city": "Helsinki", "addr:country": "FI", "addr:housenumber": "29", "addr:postcode": "00100", "addr:street": "Annankatu", "amenity": "restaurant", "cuisine": "chinese", "diet:halal": "no", "diet:kosher": "no", "name": "Mei Lin", "name:fi": "Mei Lin", "name:zh": "\u6885\u6797", "opening_hours": "Tu-Fr 11:00-21:30; Sa,Su 12:00-21:30", "payment:cash": "yes", "payment:credit_cards": "yes", "payment:debit_cards": "yes", "phone": "+358 45 1032688", "website": "https://www.meilin-fi.com/", "wheelchair": "limited"}}, {"type": "node", "id": 248639277, "lat": 60.1708706, "lon": 24.9231673}, {"type": "node", "id": 248937082, "lat": 60.1655582, "lon": 24.9415924}, {"type": "node", "id": 249109203, "lat": 60.1723766, "lon": 24.9229409, "tags": {"amenity": "toilets"}}, {"type": "node", "id": 249675574, "lat": 60.1699967, "lon": 24.9393383, "tags": {"addr:city": "Helsinki", "addr:country": "FI", "addr:housenumber": "12", "addr:postcode": "00100", "addr:street": "Kaivokatu", "amenity": "bar", "name": "Milliklubi Bar & Disco", "opening_hours": "Mo-Su 21:00-04:00", "phone": "+ 358 45 1350152", "url": "http://www.milliklubi.fi/", "website": "http://www.milliklubi.fi/"}}, {"type": "node", "id": 249687617, "lat": 60.1755144, "lon": 24.933843, "tags": {"entrance": "main"}}, {"type": "node", "id": 249689686, "lat": 60.1785245, "lon": 24.929055, "tags": {"button_operated": "yes", "crossing": "traffic_signals", "highway": "crossing", "traffic_signals:sound": "no", "traffic_signals:vibration": "no"}}, {"type": "node", "id": 250093203, "lat": 60.1820051, "lon": 24.9278886, "tags": {"advertising": "poster_box", "bench": "yes", "bin": "yes", "departures_board": "realtime", "lit": "yes", "name": "Ooppera", "name:fi": "Ooppera", "name:sv": "Operan", "public_transport": "platform", "railway": "tram_stop", "ref": "H0242", "shelter": "yes", "tram": "yes", "wheelchair": "yes", "zone:HSL": "A"}}, {"type": "node", "id": 250357362, "lat": 60.1787473, "lon": 24.9231742, "tags": {"amenity": "atm", "cash_in": "yes", "check_date": "2023-10-29", "operator": "Otto"}}, {"type": "node", "id": 250385475, "lat": 60.1779102, "lon": 24.9209718}, {"type": "node", "id": 250385476, "lat": 60.1778845, "lon": 24.9201993}, {"type": "node", "id": 250385478, "lat": 60.1783426, "lon": 24.9200944}, {"type": "node", "id": 250385479, "lat": 60.1789373, "lon": 24.9195771}, {"type": "node", "id": 250499520, "lat": 60.1610875, "lon": 24.9379757}, {"type": "node", "id": 250545474, "lat": 60.1860072, "lon": 24.9411217, "tags": {"bicycle": "yes", "crossing": "traffic_signals", "crossing:island": "yes", "highway": "crossing", "kerb": "flush", "segregated": "yes", "traffic_signals:sound": "yes", "traffic_signals:vibration": "no"}}, {"type": "node", "id": 250547478, "lat": 60.1796838, "lon": 24.9210689}, {"type": "node", "id": 250547479, "lat": 60.1796772, "lon": 24.921076}, {"type": "node", "id": 250547480, "lat": 60.179831, "lon": 24.9216379}, {"type": "node", "id": 250547481, "lat": 60.1797578, "lon": 24.9217161}, {"type": "node", "id": 250547482, "lat": 60.1796959, "lon": 24.921482}, {"type": "node", "id": 250547483, "lat": 60.1795265, "lon": 24.9216098}, {"type": "node", "id": 250547484, "lat": 60.1795103, "lon": 24.9215488}, {"type": "node", "id": 250547485, "lat": 60.1794575, "lon": 24.9215204}, {"type": "node", "id": 250547487, "lat": 60.1794589, "lon": 24.9213542}, {"type": "node", "id": 250547488, "lat": 60.1796074, "lon": 24.9211448}, {"type": "node", "id": 250547489, "lat": 60.1795461, "lon": 24.9209062}, {"type": "node", "id": 250547490, "lat": 60.1796207, "lon": 24.9208302}, {"type": "node", "id": 250547589, "lat": 60.1795002, "lon": 24.9215576}, {"type": "node", "id": 250547590, "lat": 60.1794689, "lon": 24.9215444}, {"type": "node", "id": 250547591, "lat": 60.1794521, "lon": 24.9214924}, {"type": "node", "id": 250547592, "lat": 60.1794612, "lon": 24.9214283}, {"type": "node", "id": 250548556, "lat": 60.1772904, "lon": 24.922806, "tags": {"addr:city": "Helsinki", "addr:country": "FI", "addr:housenumber": "17 C", "addr:postcode": "00260", "addr:street": "Pohjoinen Hesperiankatu", "amenity": "doctors", "fee": "yes", "healthcare": "doctor", "name": "L\u00e4\u00e4k\u00e4rikeskus Mehil\u00e4inen", "short_name": "Mehil\u00e4inen", "website": "https://www.mehilainen.fi/"}}, {"type": "node", "id": 250554002, "lat": 60.1715999, "lon": 24.9327222}, {"type": "node", "id": 250554003, "lat": 60.1715944, "lon": 24.9327184}, {"type": "node", "id": 250554004, "lat": 60.171589, "lon": 24.9327118}, {"type": "node", "id": 250554005, "lat": 60.1716064, "lon": 24.9327234}, {"type": "node", "id": 250554006, "lat": 60.1716013, "lon": 24.9322998}, {"type": "node", "id": 250554007, "lat": 60.1714834, "lon": 24.9324603}, {"type": "node", "id": 250624203, "lat": 60.1800202, "lon": 24.9182101}, {"type": "node", "id": 250624385, "lat": 60.1793193, "lon": 24.919372}, {"type": "node", "id": 250624386, "lat": 60.1792551, "lon": 24.9190947}, {"type": "node", "id": 250624952, "lat": 60.1790874, "lon": 24.9172675}, {"type": "node", "id": 250658728, "lat": 60.1614976, "lon": 24.939156}, {"type": "node", "id": 250658729, "lat": 60.1612228, "lon": 24.9383649}, {"type": "node", "id": 250658732, "lat": 60.1614755, "lon": 24.939187}, {"type": "node", "id": 250658735, "lat": 60.1612418, "lon": 24.9395151}, {"type": "node", "id": 250658736, "lat": 60.1613086, "lon": 24.9394214}, {"type": "node", "id": 250658742, "lat": 60.1609299, "lon": 24.9386111}, {"type": "node", "id": 250658744, "lat": 60.1609852, "lon": 24.9387712}, {"type": "node", "id": 250658760, "lat": 60.1612055, "lon": 24.9393998}, {"type": "node", "id": 250658761, "lat": 60.161138, "lon": 24.9392072}, {"type": "node", "id": 250670980, "lat": 60.1623775, "lon": 24.942197}, {"type": "node", "id": 250670998, "lat": 60.162034, "lon": 24.9417774}, {"type": "node", "id": 250670999, "lat": 60.1620623, "lon": 24.9417382}, {"type": "node", "id": 250671010, "lat": 60.1619257, "lon": 24.9419272}, {"type": "node", "id": 250671011, "lat": 60.1617753, "lon": 24.9421354}, {"type": "node", "id": 250675936, "lat": 60.1740932, "lon": 24.9313004, "tags": {"addr:city": "Helsinki", "addr:country": "FI", "addr:housenumber": "2", "addr:street": "Dagmarinkatu", "amenity": "restaurant", "diet:halal": "no", "diet:kosher": "no", "email": "myynti@botta.fi", "live_music": "yes", "name": "Manala", "opening_hours": "Su-We 14:00-23:00; Th-Sa 14:00-00:00", "phone": "09 5807 7707", "postal_code": "00100", "url": "https://www.manala.fi", "website": "https://www.manala.fi"}}, {"type": "node", "id": 250680019, "lat": 60.1752226, "lon": 24.9322011, "tags": {"check_date:crossing": "2021-09-14", "crossing": "traffic_signals", "highway": "crossing", "traffic_signals:vibration": "no"}}, {"type": "node", "id": 250680089, "lat": 60.1747125, "lon": 24.9327313, "tags": {"button_operated": "no", "crossing": "traffic_signals", "highway": "crossing", "traffic_signals:sound": "yes", "traffic_signals:vibration": "no"}}, {"type": "node", "id": 251061196, "lat": 60.1757629, "lon": 24.9261043}, {"type": "node", "id": 251061201, "lat": 60.1760612, "lon": 24.9259714}, {"type": "node", "id": 251061723, "lat": 60.1756024, "lon": 24.925163}, {"type": "node", "id": 251061724, "lat": 60.1755986, "lon": 24.9252068}, {"type": "node", "id": 251063559, "lat": 60.1759573, "lon": 24.925066}, {"type": "node", "id": 251065542, "lat": 60.1805229, "lon": 24.9280154, "tags": {"was:highway": "crossing"}}, {"type": "node", "id": 251337995, "lat": 60.1716826, "lon": 24.9446332, "tags": {"access": "yes", "amenity": "toilets", "check_date": "2024-08-13", "description": "Ilmainen julkinen yleis\u00f6vessa\nAlm\u00e4nn toalett\nFree public toilet\n+358931022111\nRautatientori, 00100 Helsinki", "fee": "no", "name": "Rautatientorin yleis\u00f6vessa", "operator": "Helsingin kaupunki", "wheelchair": "yes"}}, {"type": "node", "id": 252807077, "lat": 60.1759084, "lon": 24.9247179}, {"type": "node", "id": 252807078, "lat": 60.1758163, "lon": 24.9246864}, {"type": "node", "id": 252807079, "lat": 60.175867, "lon": 24.9240446}, {"type": "node", "id": 252807080, "lat": 60.1760092, "lon": 24.9239828}, {"type": "node", "id": 252807081, "lat": 60.175996, "lon": 24.9238595}, {"type": "node", "id": 252807085, "lat": 60.1760234, "lon": 24.9242207}, {"type": "node", "id": 252807086, "lat": 60.1759457, "lon": 24.9242571}, {"type": "node", "id": 256200068, "lat": 60.1693569, "lon": 24.9407688, "tags": {"addr:housenumber": "3 B", "addr:street": "Mannerheimintie", "amenity": "restaurant", "branch": "Kaivopiha", "brand": "UniCafe", "diet:halal": "no", "diet:kosher": "no", "diet:vegan": "yes", "diet:vegetarian": "yes", "indoor_seating": "yes", "name": "UniCafe", "opening_hours": "Mo-Fr 10:30-19:00; Sa 11:30-17:00", "operator": "UniCafe", "outdoor_seating": "no", "smoking": "no", "website": "https://www.unicafe.fi/", "wheelchair": "yes", "wheelchair:description": "Wheelchair entrance: Kaivopiha 10 C, elevator!", "wikidata": "Q10709657"}}, {"type": "node", "id": 256207449, "lat": 60.1715174, "lon": 24.9394476}, {"type": "node", "id": 256257152, "lat": 60.1690016, "lon": 24.9398452, "tags": {"button_operated": "no", "crossing": "traffic_signals", "highway": "crossing", "traffic_signals:sound": "yes", "traffic_signals:vibration": "no"}}, {"type": "node", "id": 257710190, "lat": 60.1864726, "lon": 24.9469706, "tags": {"check_date:crossing": "2022-06-29", "crossing": "uncontrolled", "highway": "crossing", "segregated": "yes"}}, {"type": "node", "id": 257710753, "lat": 60.1864527, "lon": 24.946626, "tags": {"crossing": "uncontrolled", "highway": "crossing", "segregated": "yes"}}, {"type": "node", "id": 257714579, "lat": 60.1866402, "lon": 24.9508851, "tags": {"button_operated": "yes", "crossing": "traffic_signals", "highway": "crossing", "traffic_signals:sound": "no", "traffic_signals:vibration": "no"}}, {"type": "node", "id": 257714588, "lat": 60.1869256, "lon": 24.9515919}, {"type": "node", "id": 257728385, "lat": 60.1863898, "lon": 24.9443228, "tags": {"created_by": "JOSM"}}, {"type": "node", "id": 257750631, "lat": 60.1713543, "lon": 24.93588, "tags": {"button_operated": "no", "crossing": "traffic_signals", "highway": "crossing", "traffic_signals:sound": "yes", "traffic_signals:vibration": "no"}}, {"type": "node", "id": 258068285, "lat": 60.1859242, "lon": 24.9401796, "tags": {"crossing": "traffic_signals", "crossing:island": "no", "highway": "crossing", "py\u00f6r\u00e4_v\u00e4ist\u00e4\u00e4_aina_autoa": "t\u00e4m\u00e4_jos_valoton", "traffic_signals:sound": "yes", "traffic_signals:vibration": "no"}}, {"type": "node", "id": 258073142, "lat": 60.1850576, "lon": 24.934185, "tags": {"bicycle": "yes", "button_operated": "no", "crossing": "traffic_signals", "highway": "crossing", "segregated": "yes", "traffic_signals:sound": "no", "traffic_signals:vibration": "no"}}, {"type": "node", "id": 258074501, "lat": 60.1844882, "lon": 24.9319707, "tags": {"check_date:crossing": "2022-07-04", "crossing": "uncontrolled", "highway": "crossing", "kerb": "lowered", "segregated": "no"}}, {"type": "node", "id": 258074504, "lat": 60.1841075, "lon": 24.9317829, "tags": {"button_operated": "yes", "crossing": "traffic_signals", "highway": "crossing", "kerb": "flush", "traffic_signals:sound": "no", "traffic_signals:vibration": "no"}}, {"type": "node", "id": 264005633, "lat": 60.1678838, "lon": 24.9532214}, {"type": "node", "id": 264008529, "lat": 60.1689674, "lon": 24.9509013}, {"type": "node", "id": 264008533, "lat": 60.1688525, "lon": 24.951011}, {"type": "node", "id": 264012240, "lat": 60.1676669, "lon": 24.9511576, "tags": {"button_operated": "no", "crossing": "traffic_signals", "highway": "crossing", "traffic_signals:sound": "no", "traffic_signals:vibration": "no"}}, {"type": "node", "id": 264015223, "lat": 60.1679606, "lon": 24.9511304, "tags": {"button_operated": "no", "crossing": "traffic_signals", "highway": "crossing", "traffic_signals:sound": "no", "traffic_signals:vibration": "no"}}, {"type": "node", "id": 264069938, "lat": 60.1853957, "lon": 24.8334461}, {"type": "node", "id": 264069939, "lat": 60.1861287, "lon": 24.8337116}, {"type": "node", "id": 264069940, "lat": 60.1862768, "lon": 24.8337223}, {"type": "node", "id": 264898341, "lat": 60.1622033, "lon": 24.9291258, "tags": {"amenity": "post_box"}}, {"type": "node", "id": 264898779, "lat": 60.1758374, "lon": 24.9271171, "tags": {"amenity": "post_box", "check_date:collection_times": "2024-06-21", "collection_times": "Mo-Fr 14:00"}}, {"type": "node", "id": 265989392, "lat": 60.1689449, "lon": 24.9509411}, {"type": "node", "id": 266153451, "lat": 60.1845467, "lon": 24.9319965}, {"type": "node", "id": 266153452, "lat": 60.1846532, "lon": 24.9320879}, {"type": "node", "id": 266153671, "lat": 60.1830484, "lon": 24.9311133}, {"type": "node", "id": 266153672, "lat": 60.1831023, "lon": 24.9311966}, {"type": "node", "id": 266153673, "lat": 60.1833265, "lon": 24.9314082}, {"type": "node", "id": 266154163, "lat": 60.1817703, "lon": 24.927444}, {"type": "node", "id": 266154164, "lat": 60.1818365, "lon": 24.927534}, {"type": "node", "id": 266159796, "lat": 60.1624988, "lon": 24.9312453}, {"type": "node", "id": 266180965, "lat": 60.1678901, "lon": 24.9532976}, {"type": "node", "id": 267720951, "lat": 60.1629737, "lon": 24.9361875, "tags": {"addr:city": "Helsinki", "addr:country": "FI", "addr:housenumber": "33", "addr:street": "Uudenmaankatu", "amenity": "restaurant", "cuisine": "thai", "diet:halal": "no", "diet:kosher": "no", "diet:vegan": "yes", "diet:vegetarian": "yes", "name": "Kaow Thip", "opening_hours": "Tu-Fr 11:00-21:00; Sa,Su 12:00-21:00", "payment:credit_cards": "yes", "payment:debit_cards": "yes", "phone": "+35892784249"}}, {"type": "node", "id": 267721494, "lat": 60.1621083, "lon": 24.9339188, "tags": {"access": "yes", "amenity": "toilets", "check_date": "2024-08-16", "description": "Ilmainen julkinen yleis\u00f6-WC\nAlm\u00e4nn toalett\nFree public toilet\n+358 9 310 22111", "fee": "no", "name": "Sinebrychoffin puiston yleis\u00f6vessa", "opening_hours": "24/7", "toilets:disposal": "flush", "unisex": "yes", "wheelchair": "yes"}}, {"type": "node", "id": 268065292, "lat": 60.1797141, "lon": 24.9536045}, {"type": "node", "id": 268065293, "lat": 60.1796579, "lon": 24.9536069}, {"type": "node", "id": 269033742, "lat": 60.1677482, "lon": 24.9511478}, {"type": "node", "id": 269497238, "lat": 60.176238, "lon": 24.9218369, "tags": {"addr:city": "Helsinki", "addr:country": "FI", "addr:housenumber": "32", "addr:postcode": "00100", "addr:street": "Runeberginkatu", "amenity": "cafe", "cuisine": "coffee_shop;regional", "name": "Fazer Cafe", "opening_hours": "Mo-Fr 07:30-20:00, Sa 08:00-19:00, Su 09:00-18:00", "website": "https://www.fazer.fi/fazer-cafe/kahvilat/fazer-cafe-runeberginkatu/"}}, {"type": "node", "id": 270978615, "lat": 60.1766356, "lon": 24.9489905}, {"type": "node", "id": 270978616, "lat": 60.1766696, "lon": 24.9490306}, {"type": "node", "id": 270978617, "lat": 60.1765917, "lon": 24.9494946}, {"type": "node", "id": 270978618, "lat": 60.1765596, "lon": 24.949512}, {"type": "node", "id": 270978619, "lat": 60.176546, "lon": 24.9494667}, {"type": "node", "id": 270993936, "lat": 60.1869944, "lon": 24.9526812}, {"type": "node", "id": 277397791, "lat": 60.1711272, "lon": 24.9363059}, {"type": "node", "id": 277398827, "lat": 60.164783, "lon": 24.9435226, "tags": {"access": "destination", "addr:housenumber": "8-10", "addr:street": "Yrj\u00f6nkatu", "amenity": "parking_entrance", "maxheight": "3.1", "opening_hours": "Mo-Fr 06:00-24:00; Sa 08:00-24:00; Su 10:00-24:00", "parking": "underground"}}, {"type": "node", "id": 277398828, "lat": 60.1659975, "lon": 24.943291, "tags": {"amenity": "parking", "capacity": "450", "capacity:charging": "yes", "capacity:disabled": "4", "charge": "8.00 EUR/hour", "fee": "yes", "layer": "-1", "maxheight": "3.1", "name": "Iso-Erottaja", "operator": "Aimo Park Finland Oy", "parking": "underground", "website": "https://www.aimopark.fi/kaupungit/helsinki/iso-erottaja/"}}, {"type": "node", "id": 277400586, "lat": 60.1719698, "lon": 24.9324958}, {"type": "node", "id": 277401520, "lat": 60.1717562, "lon": 24.9390762, "tags": {"access": "yes", "amenity": "parking", "capacity:charging": "yes", "fee": "yes", "layer": "-1", "maxheight": "2.4", "name": "P-Eliel", "operator": "EuroPark Finland Oy", "parking": "underground", "website": "https://www.europark.fi/pysakointi/p-eliel/", "wheelchair": "yes"}}, {"type": "node", "id": 277401804, "lat": 60.1684045, "lon": 24.9494677, "tags": {"access": "destination", "addr:housenumber": "27", "addr:street": "Fabianinkatu", "amenity": "parking_entrance", "height": "2.3", "opening_hours": "Mo-Su 06:00-24:00", "parking": "underground"}}, {"type": "node", "id": 277839323, "lat": 60.1839425, "lon": 24.832282}, {"type": "node", "id": 277876040, "lat": 60.1688861, "lon": 24.9509957}, {"type": "node", "id": 277878599, "lat": 60.16757, "lon": 24.9521471}, {"type": "node", "id": 277878601, "lat": 60.1675913, "lon": 24.9521579}, {"type": "node", "id": 277878605, "lat": 60.1674754, "lon": 24.9520169}, {"type": "node", "id": 277878607, "lat": 60.1674116, "lon": 24.9517611, "tags": {"bench": "no", "bin": "no", "name": "Kauppatori", "name:fi": "Kauppatori", "name:sv": "Salutorget", "public_transport": "platform", "railway": "tram_stop", "ref": "H0429", "shelter": "no", "wheelchair": "no", "zone:HSL": "A"}}, {"type": "node", "id": 277878608, "lat": 60.167463, "lon": 24.9519768, "tags": {"highway": "crossing"}}, {"type": "node", "id": 277878609, "lat": 60.1674365, "lon": 24.951564}, {"type": "node", "id": 277878610, "lat": 60.1674376, "lon": 24.9515142}, {"type": "node", "id": 277878612, "lat": 60.1674471, "lon": 24.9514269}, {"type": "node", "id": 277878613, "lat": 60.1674548, "lon": 24.95139, "tags": {"crossing:signals": "no", "highway": "crossing"}}, {"type": "node", "id": 277878614, "lat": 60.1674689, "lon": 24.9513431}, {"type": "node", "id": 277878615, "lat": 60.1674853, "lon": 24.9513015}, {"type": "node", "id": 277878617, "lat": 60.1674995, "lon": 24.9512722}, {"type": "node", "id": 277878618, "lat": 60.1675187, "lon": 24.9512401}, {"type": "node", "id": 277878620, "lat": 60.1674522, "lon": 24.9519316}, {"type": "node", "id": 280808889, "lat": 60.163025, "lon": 24.9306065, "tags": {"amenity": "shelter", "bench": "yes", "shelter_type": "public_transport", "was:highway": "bus_stop"}}, {"type": "node", "id": 280929208, "lat": 60.166369, "lon": 24.9172645}, {"type": "node", "id": 280929210, "lat": 60.1663811, "lon": 24.9175247}, {"type": "node", "id": 280929211, "lat": 60.1663287, "lon": 24.91758}, {"type": "node", "id": 280929212, "lat": 60.1662532, "lon": 24.9172785}, {"type": "node", "id": 281702358, "lat": 60.1694654, "lon": 24.9276916}, {"type": "node", "id": 281702361, "lat": 60.1698102, "lon": 24.9287938}, {"type": "node", "id": 281702362, "lat": 60.169766, "lon": 24.9290709}, {"type": "node", "id": 281702366, "lat": 60.1693776, "lon": 24.9279316}, {"type": "node", "id": 281704413, "lat": 60.1686704, "lon": 24.9283793, "tags": {"amenity": "shelter", "bench": "yes", "shelter_type": "public_transport", "was:highway": "bus_stop", "was:name": "Kamppi (M)", "was:name:fi": "Kamppi (M)", "was:name:sv": "Kampen (M)", "was:ref": "H1220", "was:zone:HSL": "A"}}, {"type": "node", "id": 282214771, "lat": 60.1713635, "lon": 24.9200717, "tags": {"amenity": "post_box", "collection_times": "Mo-Fr 14:00", "operator": "Posti", "operator:wikidata": "Q843453"}}, {"type": "node", "id": 282425686, "lat": 60.1768464, "lon": 24.9410284}, {"type": "node", "id": 282425687, "lat": 60.1769361, "lon": 24.9413237}, {"type": "node", "id": 282425689, "lat": 60.1769523, "lon": 24.9414732}, {"type": "node", "id": 282425690, "lat": 60.1769095, "lon": 24.9415687}, {"type": "node", "id": 282425691, "lat": 60.176847, "lon": 24.9415885}, {"type": "node", "id": 282425697, "lat": 60.1768145, "lon": 24.9411013}, {"type": "node", "id": 282425884, "lat": 60.1769063, "lon": 24.9413901}, {"type": "node", "id": 282425885, "lat": 60.1768191, "lon": 24.9416235}, {"type": "node", "id": 282425886, "lat": 60.1767874, "lon": 24.9416407}, {"type": "node", "id": 282425887, "lat": 60.176733, "lon": 24.9416263}, {"type": "node", "id": 282425888, "lat": 60.1766702, "lon": 24.9413287}, {"type": "node", "id": 282425889, "lat": 60.1767952, "lon": 24.9410639}, {"type": "node", "id": 282612359, "lat": 60.1701475, "lon": 24.9417929, "tags": {"addr:city": "Helsinki", "addr:country": "FI", "addr:housenumber": "8", "addr:postcode": "00100", "addr:street": "Kaivokatu", "amenity": "restaurant", "cuisine": "italian", "description": "Napule Pizzeria", "diet:halal": "no", "diet:kosher": "no", "diet:vegetarian": "yes", "indoor_seating": "yes", "level": "0", "name": "Napule", "opening_hours": "Mo-Th 11:00-22:00; Fr-Sa 11:00-23:00; Su 12:00-21:00", "outdoor_seating": "no", "phone": "+358 9 640025", "takeaway": "yes", "website": "https://www.napule.fi/", "wheelchair": "yes", "wheelchair:description": "In the City Center (= shopping center)."}}, {"type": "node", "id": 285961868, "lat": 60.1847085, "lon": 24.8332335}, {"type": "node", "id": 286102570, "lat": 60.1847692, "lon": 24.8338626}, {"type": "node", "id": 288130461, "lat": 60.1707589, "lon": 24.9389467, "tags": {"addr:city": "Helsinki", "addr:housenumber": "9", "addr:postcode": "00100", "addr:street": "Mannerheimintie", "amenity": "atm", "description": "Alhaalla S-Marketin aulassa", "floor": "-1", "indoor": "yes", "opening_hours": "24/7", "operator": "Otto", "website": "https://www.otto.fi/", "wheelchair": "yes"}}, {"type": "node", "id": 288337150, "lat": 60.166873, "lon": 24.9549034, "tags": {"alt_name": "Kauppatorin saaristoliikennelaituri", "amenity": "ferry_terminal", "cargo": "passengers", "ferry": "yes", "loc_name": "Kauppatori", "local_ref": "14", "name": "Kauppatori (Korkeasaaren laituri)", "name:fi": "Kauppatori (Korkeasaaren laituri)", "name:sv": "Salutorget (H\u00f6gholmskajen)", "network": "Saaristoliikenne", "public_transport": "station"}}, {"type": "node", "id": 288554675, "lat": 60.1685584, "lon": 24.9405296}, {"type": "node", "id": 288554678, "lat": 60.1685337, "lon": 24.9406077}, {"type": "node", "id": 288554684, "lat": 60.1685109, "lon": 24.940792}, {"type": "node", "id": 289550901, "lat": 60.1691616, "lon": 24.953117}, {"type": "node", "id": 289550902, "lat": 60.1691196, "lon": 24.9513124}, {"type": "node", "id": 289550904, "lat": 60.1692025, "lon": 24.9531156}, {"type": "node", "id": 289550905, "lat": 60.1691607, "lon": 24.9513074, "tags": {"check_date:crossing": "2021-07-20", "crossing": "uncontrolled", "highway": "crossing"}}, {"type": "node", "id": 289554755, "lat": 60.187615, "lon": 24.9602866, "tags": {"crossing": "marked", "crossing:markings": "yes", "highway": "crossing"}}, {"type": "node", "id": 289554760, "lat": 60.1868578, "lon": 24.9514048}, {"type": "node", "id": 289554767, "lat": 60.1866781, "lon": 24.9510384}, {"type": "node", "id": 289555121, "lat": 60.1869352, "lon": 24.9516396}, {"type": "node", "id": 289596954, "lat": 60.173739, "lon": 24.949676, "tags": {"button_operated": "no", "crossing": "traffic_signals", "highway": "crossing", "traffic_signals:sound": "yes", "traffic_signals:vibration": "yes"}}, {"type": "node", "id": 291815403, "lat": 60.1807696, "lon": 24.8330733}, {"type": "node", "id": 293903989, "lat": 60.169286, "lon": 24.9304147, "tags": {"addr:city": "Helsinki", "addr:country": "FI", "addr:housename": "Tennispalatsi", "addr:housenumber": "65", "addr:postcode": "00100", "addr:street": "Fredrikinkatu", "amenity": "fast_food", "branch": "Fredrikinkatu", "brand": "Hesburger", "brand:wikidata": "Q1276832", "brand:wikipedia": "en:Hesburger", "cuisine": "burger", "date": "2008-08-29", "diet:halal": "no", "diet:kosher": "no", "diet:vegan": "yes", "diet:vegetarian": "yes", "drive_through": "no", "email": "tennispalatsi@hesburger.fi", "level": "2", "name": "Hesburger", "opening_hours": "Mo-Sa 10:30-21:00; Su 12:00-21:00", "operator": "Aleksanterinkadun Burger Oy", "phone": "+358 44 480 9253", "source": "Hesburger import", "takeaway": "yes", "toilets:wheelchair": "yes", "website": "https://www.hesburger.fi/", "wheelchair": "yes"}}, {"type": "node", "id": 293903991, "lat": 60.1653073, "lon": 24.9482923, "tags": {"addr:city": "Helsinki", "addr:country": "FI", "addr:housenumber": "19", "addr:postcode": "00130", "addr:street": "Kasarmikatu", "amenity": "fast_food", "branch": "Kasarmitori", "brand": "Hesburger", "brand:wikidata": "Q1276832", "brand:wikipedia": "en:Hesburger", "cuisine": "burger", "date": "2008-08-29", "diet:halal": "no", "diet:kosher": "no", "diet:vegan": "yes", "diet:vegetarian": "yes", "drive_through": "yes", "email": "kasarmitori@hesburger.fi", "name": "Hesburger", "opening_hours": "Mo-Th 10:00-21:00; Sa 11:30-05:00; PH off", "operator": "Burgermakasiini Oy", "phone": "+358 44 480 9241", "smoking": "no", "source": "Hesburger import", "takeaway": "yes", "website": "https://www.hesburger.fi/", "wheelchair": "limited"}}, {"type": "node", "id": 293903992, "lat": 60.1705155, "lon": 24.940473, "tags": {"addr:city": "Helsinki", "addr:housename": "Kompassitaso", "addr:postcode": "00100", "addr:street": "Kaivokatu", "amenity": "fast_food", "branch": "Kaivokatu", "brand": "Hesburger", "brand:wikidata": "Q1276832", "cuisine": "burger", "date": "2008-08-29", "diet:halal": "no", "diet:kosher": "no", "diet:vegan": "yes", "diet:vegetarian": "yes", "drive_through": "no", "email": "kompassi@hesburger.fi", "layer": "-2", "name": "Hesburger", "opening_hours": "Mo-Fr 10:30-22:00; Sa 11:00-22:00; Su 12:00-21:00", "operator": "Rautatientorin Burger Oy", "phone": "+358 44 480 9250", "source": "Hesburger import", "takeaway": "yes", "wheelchair": "yes"}}, {"type": "node", "id": 294532136, "lat": 60.163824, "lon": 24.940954, "tags": {"addr:city": "Helsinki", "addr:housenumber": "8", "addr:postcode": "00120", "addr:street": "Annankatu", "amenity": "post_office", "check_date": "2024-08-22", "name": "Punavuori", "opening_hours": "Mo-Fr 09:00-18:00; Sa 10:00-15:00", "postal_code": "00120"}}, {"type": "node", "id": 294976831, "lat": 60.1801406, "lon": 24.9500072, "tags": {"addr:city": "Helsinki", "addr:country": "FI", "addr:housenumber": "2", "addr:postcode": "00530", "addr:street": "H\u00e4meentie", "amenity": "fast_food", "branch": "Hakaniemi", "brand": "Hesburger", "brand:wikidata": "Q1276832", "cuisine": "burger", "date": "2008-08-29", "diet:halal": "no", "diet:kosher": "yes", "diet:vegan": "yes", "diet:vegetarian": "yes", "drive_through": "no", "email": "hakaniemi@hesburger.fi", "name": "Hesburger", "opening_hours": "Mo-Th 10:00-23:00; Fr,Sa 10:00-23:30; Su 11:00-23:00", "operator": "Hakaniemen Burger Oy", "phone": "+358 44 480 9232", "source": "Hesburger import", "takeaway": "yes", "website": "https://www.hesburger.fi/", "wheelchair": "limited"}}, {"type": "node", "id": 295067435, "lat": 60.1702194, "lon": 24.9322752}, {"type": "node", "id": 295575932, "lat": 60.177959, "lon": 24.9293408, "tags": {"button_operated": "yes", "crossing": "traffic_signals", "highway": "crossing", "traffic_signals:sound": "yes", "traffic_signals:vibration": "no"}}, {"type": "node", "id": 295711609, "lat": 60.1700505, "lon": 24.9381964, "tags": {"button_operated": "no", "crossing": "traffic_signals", "highway": "crossing", "traffic_signals:sound": "yes", "traffic_signals:vibration": "no"}}, {"type": "node", "id": 295948004, "lat": 60.1666958, "lon": 24.9237073}, {"type": "node", "id": 295948006, "lat": 60.1667126, "lon": 24.9234786}, {"type": "node", "id": 295948007, "lat": 60.1667948, "lon": 24.9237595}, {"type": "node", "id": 295948567, "lat": 60.1672129, "lon": 24.9245766}, {"type": "node", "id": 295948568, "lat": 60.167177, "lon": 24.924854}, {"type": "node", "id": 295948571, "lat": 60.1671642, "lon": 24.9249542}, {"type": "node", "id": 295948572, "lat": 60.1670798, "lon": 24.9256075}, {"type": "node", "id": 296044795, "lat": 60.1694755, "lon": 24.9360863}, {"type": "node", "id": 296045339, "lat": 60.1664476, "lon": 24.9258177}, {"type": "node", "id": 296045340, "lat": 60.166396, "lon": 24.9262082}, {"type": "node", "id": 296045341, "lat": 60.1664245, "lon": 24.9258054}, {"type": "node", "id": 296908392, "lat": 60.1892834, "lon": 24.8341367}, {"type": "node", "id": 296908395, "lat": 60.19031, "lon": 24.8308081}, {"type": "node", "id": 296908403, "lat": 60.1866595, "lon": 24.8330952}, {"type": "node", "id": 297278247, "lat": 60.1717109, "lon": 24.9343542}, {"type": "node", "id": 297278249, "lat": 60.1716859, "lon": 24.9344945}, {"type": "node", "id": 297281930, "lat": 60.1722877, "lon": 24.9391208}, {"type": "node", "id": 297640402, "lat": 60.163708, "lon": 24.9305928, "tags": {"addr:city": "Helsinki", "addr:country": "FI", "amenity": "cafe"}}, {"type": "node", "id": 297640419, "lat": 60.1638142, "lon": 24.9309627, "tags": {"amenity": "post_box", "collection_times": "Mo-Fr 14:00"}}, {"type": "node", "id": 297676825, "lat": 60.1796215, "lon": 24.9487889}, {"type": "node", "id": 297676827, "lat": 60.179695, "lon": 24.949088}, {"type": "node", "id": 297676828, "lat": 60.1794515, "lon": 24.9488085}, {"type": "node", "id": 297676829, "lat": 60.1795984, "lon": 24.9493459}, {"type": "node", "id": 297676830, "lat": 60.179507, "lon": 24.9487462}, {"type": "node", "id": 297676831, "lat": 60.1795432, "lon": 24.9488766}, {"type": "node", "id": 297922361, "lat": 60.1838246, "lon": 24.8321431, "tags": {"crossing:island": "no", "crossing:signals": "no", "highway": "crossing"}}, {"type": "node", "id": 297922840, "lat": 60.1836092, "lon": 24.8352397}, {"type": "node", "id": 298109392, "lat": 60.1648915, "lon": 24.9263412}, {"type": "node", "id": 298109397, "lat": 60.1649393, "lon": 24.9263753}, {"type": "node", "id": 298109398, "lat": 60.1648896, "lon": 24.9269572}, {"type": "node", "id": 298109399, "lat": 60.1650756, "lon": 24.9266948}, {"type": "node", "id": 298109402, "lat": 60.1647596, "lon": 24.926585}, {"type": "node", "id": 298109407, "lat": 60.1646495, "lon": 24.9266578}, {"type": "node", "id": 298109412, "lat": 60.164652, "lon": 24.9266048}, {"type": "node", "id": 298109415, "lat": 60.1646939, "lon": 24.9265448}, {"type": "node", "id": 298109416, "lat": 60.1647655, "lon": 24.9267468}, {"type": "node", "id": 298109417, "lat": 60.1645167, "lon": 24.926845}, {"type": "node", "id": 298109418, "lat": 60.1645773, "lon": 24.9270162}, {"type": "node", "id": 298139361, "lat": 60.1635973, "lon": 24.9311386}, {"type": "node", "id": 298139362, "lat": 60.1634956, "lon": 24.9308499}, {"type": "node", "id": 298139363, "lat": 60.1637135, "lon": 24.9313044}, {"type": "node", "id": 298139365, "lat": 60.1635209, "lon": 24.9313456}, {"type": "node", "id": 298139366, "lat": 60.1629957, "lon": 24.9316778}, {"type": "node", "id": 298139367, "lat": 60.1633271, "lon": 24.9312061}, {"type": "node", "id": 298139369, "lat": 60.1629822, "lon": 24.9320163}, {"type": "node", "id": 298268916, "lat": 60.1796809, "lon": 24.9239896, "tags": {"addr:city": "Helsinki", "addr:country": "FI", "addr:housenumber": "55", "addr:postcode": "00260", "addr:street": "Runeberginkatu", "addr:unit": "b", "amenity": "restaurant", "cuisine": "japanese;sushi", "diet:halal": "no", "diet:kosher": "no", "email": "myyntipalvelu@tokyo55.fi", "indoor_seating": "yes", "name": "Tokyo55 Sushi Academy", "opening_hours": "Mo 11:00-14:00,16:00-23:00; Tu-Fr 11:00-14:00,16:00-00:00; Sa 13:00-23:30", "operator": "Kaukoravintolat Oy", "outdoor_seating": "no", "phone": "+358943427640", "takeaway": "yes", "website": "http://tokyo55.fi/"}}, {"type": "node", "id": 298372057, "lat": 60.165882, "lon": 24.9332248}, {"type": "node", "id": 298372059, "lat": 60.1661137, "lon": 24.9327917}, {"type": "node", "id": 298372063, "lat": 60.1660797, "lon": 24.9326958}, {"type": "node", "id": 298372336, "lat": 60.1662718, "lon": 24.9346027, "tags": {"addr:city": "Helsinki", "addr:country": "FI", "addr:housenumber": "47", "addr:postcode": "00100", "addr:street": "Fredrikinkatu", "amenity": "pub", "name": "Oluthuone Angleterre", "opening_hours": "Mo-Th 15:00-01:00; Fr-Sa 13:00-02:00", "outdoor_seating": "no", "payment:credit_cards": "yes", "payment:debit_cards": "yes", "url": "http://www.oluthuone.com/angleterre.html", "website": "https://www.raflaamo.fi/fi/helsinki/angleterre", "wheelchair": "yes"}}, {"type": "node", "id": 298407171, "lat": 60.1732194, "lon": 24.949088, "tags": {"button_operated": "no", "check_date:crossing": "2021-02-18", "crossing": "traffic_signals", "highway": "crossing", "traffic_signals:sound": "yes", "traffic_signals:vibration": "no"}}, {"type": "node", "id": 298408342, "lat": 60.1723142, "lon": 24.9490135, "tags": {"access": "destination", "addr:housenumber": "10", "addr:street": "Kaisaniemenkatu", "amenity": "parking_entrance", "opening_hours": "24/7", "parking": "underground"}}, {"type": "node", "id": 298415692, "lat": 60.1599071, "lon": 24.9171879}, {"type": "node", "id": 298415696, "lat": 60.1600214, "lon": 24.917028}, {"type": "node", "id": 298422432, "lat": 60.160053, "lon": 24.9175072}, {"type": "node", "id": 298422433, "lat": 60.1604086, "lon": 24.918517}, {"type": "node", "id": 298422435, "lat": 60.1601356, "lon": 24.9173769}, {"type": "node", "id": 298422436, "lat": 60.1604997, "lon": 24.9183876}, {"type": "node", "id": 298422437, "lat": 60.1600929, "lon": 24.9174458}, {"type": "node", "id": 298425814, "lat": 60.1626619, "lon": 24.919963}, {"type": "node", "id": 298425816, "lat": 60.1626649, "lon": 24.9201153}, {"type": "node", "id": 298425818, "lat": 60.1621066, "lon": 24.9201857}, {"type": "node", "id": 298427151, "lat": 60.1633761, "lon": 24.9189836}, {"type": "node", "id": 298427153, "lat": 60.1633828, "lon": 24.9192076}, {"type": "node", "id": 298427155, "lat": 60.1628445, "lon": 24.9190473}, {"type": "node", "id": 298427157, "lat": 60.1628511, "lon": 24.9192713}, {"type": "node", "id": 298427169, "lat": 60.1628456, "lon": 24.9191294, "tags": {"kerb": "yes"}}, {"type": "node", "id": 298427172, "lat": 60.163378, "lon": 24.9190751}, {"type": "node", "id": 298428314, "lat": 60.1626256, "lon": 24.9173047, "tags": {"kerb": "yes"}}, {"type": "node", "id": 298428315, "lat": 60.1626219, "lon": 24.9171905}, {"type": "node", "id": 298428317, "lat": 60.1621147, "lon": 24.9174919}, {"type": "node", "id": 298428318, "lat": 60.1621107, "lon": 24.9173682}, {"type": "node", "id": 298428319, "lat": 60.1626295, "lon": 24.9174247}, {"type": "node", "id": 298428320, "lat": 60.1621072, "lon": 24.9172578}, {"type": "node", "id": 298428328, "lat": 60.162428, "lon": 24.9176057, "tags": {"amenity": "waste_disposal", "waste": "litter"}}, {"type": "node", "id": 298645140, "lat": 60.171095, "lon": 24.9233338}, {"type": "node", "id": 298645141, "lat": 60.1708807, "lon": 24.9230228}, {"type": "node", "id": 298645142, "lat": 60.1708637, "lon": 24.9232783}, {"type": "node", "id": 298645143, "lat": 60.1711075, "lon": 24.9231772}, {"type": "node", "id": 298645144, "lat": 60.1712198, "lon": 24.9231073}, {"type": "node", "id": 298645145, "lat": 60.1712133, "lon": 24.9232057}, {"type": "node", "id": 298645147, "lat": 60.171217, "lon": 24.923136}, {"type": "node", "id": 298655323, "lat": 60.1795594, "lon": 24.9208346}, {"type": "node", "id": 298655324, "lat": 60.1795133, "lon": 24.9206497}, {"type": "node", "id": 298655326, "lat": 60.1793279, "lon": 24.9208367}, {"type": "node", "id": 298655327, "lat": 60.1793856, "lon": 24.921068}, {"type": "node", "id": 298655329, "lat": 60.1793741, "lon": 24.921022}, {"type": "node", "id": 298655409, "lat": 60.1799182, "lon": 24.9205458, "tags": {"amenity": "waste_disposal", "waste": "litter"}}, {"type": "node", "id": 298655600, "lat": 60.1800625, "lon": 24.9213292, "tags": {"amenity": "bench"}}, {"type": "node", "id": 298655601, "lat": 60.1800635, "lon": 24.9212949, "tags": {"amenity": "waste_disposal", "waste": "litter"}}, {"type": "node", "id": 298950639, "lat": 60.1803379, "lon": 24.9200954, "tags": {"amenity": "bench"}}, {"type": "node", "id": 298950640, "lat": 60.1804769, "lon": 24.9209572, "tags": {"amenity": "bench"}}, {"type": "node", "id": 298950641, "lat": 60.1802041, "lon": 24.9202391, "tags": {"amenity": "bench"}}, {"type": "node", "id": 298950642, "lat": 60.1803355, "lon": 24.9210309, "tags": {"amenity": "bench"}}, {"type": "node", "id": 298950643, "lat": 60.180129, "lon": 24.9204953, "tags": {"amenity": "bench"}}, {"type": "node", "id": 298950770, "lat": 60.1805469, "lon": 24.9208871, "tags": {"amenity": "bench", "check_date": "2021-07-11"}}, {"type": "node", "id": 298950777, "lat": 60.1805737, "lon": 24.9203973, "tags": {"amenity": "bench"}}, {"type": "node", "id": 298950779, "lat": 60.1806241, "lon": 24.9206016, "tags": {"amenity": "bench"}}, {"type": "node", "id": 298950780, "lat": 60.180521, "lon": 24.9201792, "tags": {"amenity": "bench"}}, {"type": "node", "id": 299263741, "lat": 60.1613157, "lon": 24.9207529}, {"type": "node", "id": 299263751, "lat": 60.1612579, "lon": 24.9209707}, {"type": "node", "id": 299263765, "lat": 60.1611022, "lon": 24.917352}, {"type": "node", "id": 299263766, "lat": 60.1607931, "lon": 24.9164545}, {"type": "node", "id": 299263768, "lat": 60.1606836, "lon": 24.9166069}, {"type": "node", "id": 299263769, "lat": 60.1609927, "lon": 24.9175044}, {"type": "node", "id": 299268443, "lat": 60.1712777, "lon": 24.9391224}, {"type": "node", "id": 299268444, "lat": 60.1712408, "lon": 24.9392187}, {"type": "node", "id": 299268445, "lat": 60.1712135, "lon": 24.9399795}, {"type": "node", "id": 299268446, "lat": 60.1713054, "lon": 24.9401479}, {"type": "node", "id": 299268447, "lat": 60.1722515, "lon": 24.9399531}, {"type": "node", "id": 299270625, "lat": 60.1707214, "lon": 24.940471}, {"type": "node", "id": 299355885, "lat": 60.1711764, "lon": 24.9167628, "tags": {"amenity": "waste_disposal"}}, {"type": "node", "id": 299448260, "lat": 60.1894451, "lon": 24.82963, "tags": {"crossing": "marked", "crossing:island": "no", "crossing:markings": "yes", "highway": "crossing"}}, {"type": "node", "id": 299903783, "lat": 60.1748589, "lon": 24.9170389}, {"type": "node", "id": 299907314, "lat": 60.1796174, "lon": 24.916602}, {"type": "node", "id": 299907315, "lat": 60.1796267, "lon": 24.9166809}, {"type": "node", "id": 299907316, "lat": 60.1803934, "lon": 24.9163132}, {"type": "node", "id": 299908237, "lat": 60.1768304, "lon": 24.9178894}, {"type": "node", "id": 299908239, "lat": 60.1769812, "lon": 24.9192112}, {"type": "node", "id": 299979845, "lat": 60.1632446, "lon": 24.9469717}, {"type": "node", "id": 299979847, "lat": 60.1632611, "lon": 24.947435}, {"type": "node", "id": 299979848, "lat": 60.1632109, "lon": 24.9469765}, {"type": "node", "id": 299979849, "lat": 60.1630476, "lon": 24.9468758}, {"type": "node", "id": 299979850, "lat": 60.1630845, "lon": 24.9474604}, {"type": "node", "id": 299979855, "lat": 60.1630514, "lon": 24.9469827}, {"type": "node", "id": 299983620, "lat": 60.1651211, "lon": 24.9495371, "tags": {"access": "destination", "amenity": "parking_entrance", "parking": "underground"}},